{
  "type": "FeatureCollection",
  "generator": "overpass-ide",
  "copyright": "The data included in this document is from www.openstreetmap.org. The data is made available under ODbL.",
  "timestamp": "2018-07-09T12:03:01Z",
  "features": [
    {
      "type": "Feature",
      "properties": {
        "@id": "node/240178799",
        "amenity": "bar",
        "name": "Le Plazza"
      },
      "geometry": {
        "type": "Point",
        "coordinates": [
          0.1185585,
          49.4927414
        ]
      },
      "id": "node/240178799"
    },
    {
      "type": "Feature",
      "properties": {
        "@id": "node/247439149",
        "amenity": "bar",
        "name": "Bar Hemingway"
      },
      "geometry": {
        "type": "Point",
        "coordinates": [
          2.3275703,
          48.8688161
        ]
      },
      "id": "node/247439149"
    },
    {
      "type": "Feature",
      "properties": {
        "@id": "node/247455913",
        "amenity": "bar",
        "name": "Juvénile's"
      },
      "geometry": {
        "type": "Point",
        "coordinates": [
          2.3370822,
          48.8663165
        ]
      },
      "id": "node/247455913"
    },
    {
      "type": "Feature",
      "properties": {
        "@id": "node/247467737",
        "amenity": "bar",
        "name": "Willi's Wine Bar"
      },
      "geometry": {
        "type": "Point",
        "coordinates": [
          2.3382902,
          48.8663449
        ]
      },
      "id": "node/247467737"
    },
    {
      "type": "Feature",
      "properties": {
        "@id": "node/251010491",
        "amenity": "bar",
        "name": "Footsie"
      },
      "geometry": {
        "type": "Point",
        "coordinates": [
          2.3317879,
          48.8695611
        ]
      },
      "id": "node/251010491"
    },
    {
      "type": "Feature",
      "properties": {
        "@id": "node/251023849",
        "addr:housenumber": "5",
        "addr:postcode": "75002",
        "addr:street": "Rue Daunou",
        "amenity": "bar",
        "name": "Harry's Bar",
        "source": "www.harrysbar.fr",
        "toilets:wheelchair": "no",
        "wheelchair": "no",
        "wheelchair:description": "marche à l'entrée, beaucoup de monde donc impossible de faire passer un fauteuil roulant et toilettes à l'étage.",
        "wikidata": "Q1334247"
      },
      "geometry": {
        "type": "Point",
        "coordinates": [
          2.3321035,
          48.8691942
        ]
      },
      "id": "node/251023849"
    },
    {
      "type": "Feature",
      "properties": {
        "@id": "node/251699774",
        "amenity": "bar",
        "name": "10 Bar International"
      },
      "geometry": {
        "type": "Point",
        "coordinates": [
          2.3385693,
          48.8510774
        ]
      },
      "id": "node/251699774"
    },
    {
      "type": "Feature",
      "properties": {
        "@id": "node/251758249",
        "amenity": "bar",
        "bar": "cocktail",
        "name": "Buddha Bar"
      },
      "geometry": {
        "type": "Point",
        "coordinates": [
          2.3215688,
          48.8680799
        ]
      },
      "id": "node/251758249"
    },
    {
      "type": "Feature",
      "properties": {
        "@id": "node/255919163",
        "addr:city": "Dijon",
        "addr:housenumber": "55",
        "addr:postcode": "21000",
        "addr:street": "Rue du Faubourg Raines",
        "amenity": "bar",
        "name": "Bar Tabac Le Raines",
        "shop": "newsagent",
        "source": "survey",
        "tickets:public_transport": "yes",
        "tobacco": "yes"
      },
      "geometry": {
        "type": "Point",
        "coordinates": [
          5.0256651,
          47.3194756
        ]
      },
      "id": "node/255919163"
    },
    {
      "type": "Feature",
      "properties": {
        "@id": "node/262552125",
        "amenity": "bar",
        "name": "Black Dragon",
        "wheelchair": "no"
      },
      "geometry": {
        "type": "Point",
        "coordinates": [
          5.048487,
          47.3335558
        ]
      },
      "id": "node/262552125"
    },
    {
      "type": "Feature",
      "properties": {
        "@id": "node/264788761",
        "amenity": "bar",
        "cuisine": "coffee_shop",
        "name": "Le Moderne"
      },
      "geometry": {
        "type": "Point",
        "coordinates": [
          2.2691302,
          48.9154646
        ]
      },
      "id": "node/264788761"
    },
    {
      "type": "Feature",
      "properties": {
        "@id": "node/274247409",
        "amenity": "bar",
        "name": "Kaskad' Café"
      },
      "geometry": {
        "type": "Point",
        "coordinates": [
          2.3828693,
          48.8826925
        ]
      },
      "id": "node/274247409"
    },
    {
      "type": "Feature",
      "properties": {
        "@id": "node/274248904",
        "amenity": "bar",
        "name": "Lou Pascalou",
        "toilets:wheelchair": "no",
        "wheelchair": "no"
      },
      "geometry": {
        "type": "Point",
        "coordinates": [
          2.3855356,
          48.8662404
        ]
      },
      "id": "node/274248904"
    },
    {
      "type": "Feature",
      "properties": {
        "@id": "node/276746117",
        "amenity": "bar",
        "name": "Manneken Pis"
      },
      "geometry": {
        "type": "Point",
        "coordinates": [
          2.3036858,
          49.8956342
        ]
      },
      "id": "node/276746117"
    },
    {
      "type": "Feature",
      "properties": {
        "@id": "node/276746118",
        "amenity": "bar",
        "name": "Couleur Café",
        "wheelchair": "yes"
      },
      "geometry": {
        "type": "Point",
        "coordinates": [
          2.303776,
          49.8957068
        ]
      },
      "id": "node/276746118"
    },
    {
      "type": "Feature",
      "properties": {
        "@id": "node/276746121",
        "amenity": "bar"
      },
      "geometry": {
        "type": "Point",
        "coordinates": [
          2.3034299,
          49.8956062
        ]
      },
      "id": "node/276746121"
    },
    {
      "type": "Feature",
      "properties": {
        "@id": "node/282468472",
        "addr:city": "Paris",
        "addr:housenumber": "28",
        "addr:postcode": "75002",
        "addr:street": "Rue Greneta",
        "amenity": "bar",
        "checked": "2015-11-28",
        "name": "La Cordonnerie",
        "opening_hours": "Mo-Su 08:00-02:00",
        "source": "survey 2015"
      },
      "geometry": {
        "type": "Point",
        "coordinates": [
          2.3505855,
          48.8652332
        ]
      },
      "id": "node/282468472"
    },
    {
      "type": "Feature",
      "properties": {
        "@id": "node/293982735",
        "amenity": "bar",
        "name": "Mon Coco",
        "opening_hours": "Mo-Su 11:00-29:00",
        "wheelchair": "limited"
      },
      "geometry": {
        "type": "Point",
        "coordinates": [
          2.3656152,
          48.8666591
        ]
      },
      "id": "node/293982735"
    },
    {
      "type": "Feature",
      "properties": {
        "@id": "node/294038638",
        "amenity": "bar",
        "name": "Le Navigateur"
      },
      "geometry": {
        "type": "Point",
        "coordinates": [
          2.3739646,
          48.8779867
        ]
      },
      "id": "node/294038638"
    },
    {
      "type": "Feature",
      "properties": {
        "@id": "node/294266518",
        "addr:city": "Paris",
        "addr:housenumber": "10",
        "addr:postcode": "75019",
        "addr:street": "Place de la Bataille de Stalingrad",
        "amenity": "bar",
        "layer": "0",
        "name": "25° Est"
      },
      "geometry": {
        "type": "Point",
        "coordinates": [
          2.3707556,
          48.8838984
        ]
      },
      "id": "node/294266518"
    },
    {
      "type": "Feature",
      "properties": {
        "@id": "node/300136427",
        "amenity": "bar",
        "shop": "newsagent",
        "shop:fr": "tabac"
      },
      "geometry": {
        "type": "Point",
        "coordinates": [
          2.4199534,
          48.7658703
        ]
      },
      "id": "node/300136427"
    },
    {
      "type": "Feature",
      "properties": {
        "@id": "node/305903409",
        "amenity": "bar",
        "bar": "wine_bar",
        "name": "Les Caves Populaires",
        "phone": "+33 1 53 04 08 32",
        "smoking": "outside",
        "source": "survey:2015-04-03"
      },
      "geometry": {
        "type": "Point",
        "coordinates": [
          2.3246274,
          48.8847758
        ]
      },
      "id": "node/305903409"
    },
    {
      "type": "Feature",
      "properties": {
        "@id": "node/308204330",
        "amenity": "bar",
        "name": "Le Gambetta"
      },
      "geometry": {
        "type": "Point",
        "coordinates": [
          2.4030888,
          48.8595367
        ]
      },
      "id": "node/308204330"
    },
    {
      "type": "Feature",
      "properties": {
        "@id": "node/312154083",
        "amenity": "bar",
        "name": "Le Colorado"
      },
      "geometry": {
        "type": "Point",
        "coordinates": [
          0.1608876,
          48.0143192
        ]
      },
      "id": "node/312154083"
    },
    {
      "type": "Feature",
      "properties": {
        "@id": "node/323061031",
        "amenity": "bar",
        "name": "Café Universel"
      },
      "geometry": {
        "type": "Point",
        "coordinates": [
          2.3413738,
          48.8416772
        ]
      },
      "id": "node/323061031"
    },
    {
      "type": "Feature",
      "properties": {
        "@id": "node/418055930",
        "amenity": "bar",
        "name": "Le little",
        "opening_hours": "Mo-Su 17:00-02:00"
      },
      "geometry": {
        "type": "Point",
        "coordinates": [
          2.3660388,
          48.8667141
        ]
      },
      "id": "node/418055930"
    },
    {
      "type": "Feature",
      "properties": {
        "@id": "node/418065632",
        "amenity": "bar",
        "name": "Bar du Lycée"
      },
      "geometry": {
        "type": "Point",
        "coordinates": [
          2.3867385,
          48.8639411
        ]
      },
      "id": "node/418065632"
    },
    {
      "type": "Feature",
      "properties": {
        "@id": "node/418140401",
        "addr:city": "Paris",
        "addr:housenumber": "141",
        "addr:postcode": "75011",
        "addr:street": "Rue Saint-Maur",
        "amenity": "bar",
        "name": "Chair De Poule",
        "opening_hours": "Mo-Sa 08:00-18:00; Su 17:00-00:00",
        "phone": "+33 1 43 38 89 06",
        "website": "http://chairdepouleparis.com"
      },
      "geometry": {
        "type": "Point",
        "coordinates": [
          2.3754429,
          48.8676415
        ]
      },
      "id": "node/418140401"
    },
    {
      "type": "Feature",
      "properties": {
        "@id": "node/428061630",
        "amenity": "bar",
        "name": "Le virginie",
        "source": "knowledge"
      },
      "geometry": {
        "type": "Point",
        "coordinates": [
          2.3851348,
          48.849738
        ]
      },
      "id": "node/428061630"
    },
    {
      "type": "Feature",
      "properties": {
        "@id": "node/428064695",
        "addr:housenumber": "6",
        "addr:street": "Rue de la Main d'Or",
        "amenity": "bar",
        "name": "Le Fanfaron",
        "phone": "+33149234114"
      },
      "geometry": {
        "type": "Point",
        "coordinates": [
          2.3783,
          48.8516388
        ]
      },
      "id": "node/428064695"
    },
    {
      "type": "Feature",
      "properties": {
        "@id": "node/428164786",
        "addr:city": "Paris",
        "addr:housenumber": "240",
        "addr:postcode": "75012",
        "addr:street": "Rue du Faubourg Saint-Antoine",
        "amenity": "bar",
        "name": "Le Petit Louis",
        "old_name": "\"Patrick's Le Ballon Vert"
      },
      "geometry": {
        "type": "Point",
        "coordinates": [
          2.389517,
          48.8492104
        ]
      },
      "id": "node/428164786"
    },
    {
      "type": "Feature",
      "properties": {
        "@id": "node/429660096",
        "amenity": "bar",
        "name": "La Halte des Taxis"
      },
      "geometry": {
        "type": "Point",
        "coordinates": [
          2.3615547,
          48.8330139
        ]
      },
      "id": "node/429660096"
    },
    {
      "type": "Feature",
      "properties": {
        "@id": "node/440189061",
        "amenity": "bar",
        "name": "Palais de la Bière"
      },
      "geometry": {
        "type": "Point",
        "coordinates": [
          4.1877339,
          50.4782029
        ]
      },
      "id": "node/440189061"
    },
    {
      "type": "Feature",
      "properties": {
        "@id": "node/442505759",
        "amenity": "bar",
        "brewery": "Jeanlain Six",
        "name": "La Caravane",
        "opening_hours": "Mo-Su 11:00-2:00",
        "phone": "+33 1 49 23 01 86",
        "website": "http://www.lacaravane.eu/"
      },
      "geometry": {
        "type": "Point",
        "coordinates": [
          2.3714939,
          48.8683288
        ]
      },
      "id": "node/442505759"
    },
    {
      "type": "Feature",
      "properties": {
        "@id": "node/444644415",
        "amenity": "bar",
        "name": "Bar de l'Hôtel de Ville"
      },
      "geometry": {
        "type": "Point",
        "coordinates": [
          2.9564809,
          48.3848976
        ]
      },
      "id": "node/444644415"
    },
    {
      "type": "Feature",
      "properties": {
        "@id": "node/444644431",
        "amenity": "bar"
      },
      "geometry": {
        "type": "Point",
        "coordinates": [
          2.9556549,
          48.387095
        ]
      },
      "id": "node/444644431"
    },
    {
      "type": "Feature",
      "properties": {
        "@id": "node/444644437",
        "amenity": "bar"
      },
      "geometry": {
        "type": "Point",
        "coordinates": [
          2.9575947,
          48.3866618
        ]
      },
      "id": "node/444644437"
    },
    {
      "type": "Feature",
      "properties": {
        "@id": "node/444644438",
        "amenity": "bar"
      },
      "geometry": {
        "type": "Point",
        "coordinates": [
          2.9579895,
          48.386981
        ]
      },
      "id": "node/444644438"
    },
    {
      "type": "Feature",
      "properties": {
        "@id": "node/446274409",
        "amenity": "bar",
        "name": "L orbe"
      },
      "geometry": {
        "type": "Point",
        "coordinates": [
          1.1021914,
          49.443764
        ]
      },
      "id": "node/446274409"
    },
    {
      "type": "Feature",
      "properties": {
        "@id": "node/446819198",
        "amenity": "bar",
        "description": "Bar & restaurant",
        "level": "0",
        "name": "Le Dellys",
        "opening_hours": "Mo 10:00-24:00; Tu-Fr 00:00-02:00,10:00-24:00; Sa 16:00-24:00; Su 00:00-02:00",
        "phone": "+33 1 40 34 90 74",
        "restaurant": "yes",
        "source": "survey 11/2017",
        "website": "http://www.le-dellys.com"
      },
      "geometry": {
        "type": "Point",
        "coordinates": [
          2.3578049,
          48.8783181
        ]
      },
      "id": "node/446819198"
    },
    {
      "type": "Feature",
      "properties": {
        "@id": "node/448284257",
        "amenity": "bar"
      },
      "geometry": {
        "type": "Point",
        "coordinates": [
          0.6130825,
          47.3405712
        ]
      },
      "id": "node/448284257"
    },
    {
      "type": "Feature",
      "properties": {
        "@id": "node/448284258",
        "amenity": "bar"
      },
      "geometry": {
        "type": "Point",
        "coordinates": [
          0.6138207,
          47.3406177
        ]
      },
      "id": "node/448284258"
    },
    {
      "type": "Feature",
      "properties": {
        "@id": "node/452426206",
        "amenity": "bar"
      },
      "geometry": {
        "type": "Point",
        "coordinates": [
          2.9611547,
          48.3882321
        ]
      },
      "id": "node/452426206"
    },
    {
      "type": "Feature",
      "properties": {
        "@id": "node/452561396",
        "amenity": "bar",
        "name": "Le Courteline",
        "source": "cadastre-dgi-fr source : Direction Générale des Impôts - Cadastre ; mise à jour : 2008",
        "takeaway": "yes"
      },
      "geometry": {
        "type": "Point",
        "coordinates": [
          0.6724882,
          47.3927999
        ]
      },
      "id": "node/452561396"
    },
    {
      "type": "Feature",
      "properties": {
        "@id": "node/452626352",
        "amenity": "bar",
        "name": "L'espérance"
      },
      "geometry": {
        "type": "Point",
        "coordinates": [
          -0.2471905,
          49.2188726
        ]
      },
      "id": "node/452626352"
    },
    {
      "type": "Feature",
      "properties": {
        "@id": "node/454140052",
        "addr:housenumber": "7",
        "addr:postcode": "37000",
        "addr:street": "Rue des Orfèvres",
        "amenity": "bar",
        "name": "Le Saint-James",
        "source": "cadastre-dgi-fr source : Direction Générale des Impôts - Cadastre ; mise à jour : 2008"
      },
      "geometry": {
        "type": "Point",
        "coordinates": [
          0.6824309,
          47.3944752
        ]
      },
      "id": "node/454140052"
    },
    {
      "type": "Feature",
      "properties": {
        "@id": "node/454140073",
        "addr:housenumber": "108",
        "amenity": "bar",
        "name": "Le Puit sait tout",
        "outdoor_seating": "yes",
        "source": "cadastre-dgi-fr source : Direction Générale des Impôts - Cadastre ; mise à jour : 2008"
      },
      "geometry": {
        "type": "Point",
        "coordinates": [
          0.6824066,
          47.3946369
        ]
      },
      "id": "node/454140073"
    },
    {
      "type": "Feature",
      "properties": {
        "@id": "node/454164674",
        "addr:housenumber": "33",
        "addr:postcode": "37000",
        "addr:street": "Rue Briçonnet",
        "amenity": "bar",
        "name": "Le Café Chaud",
        "source": "cadastre-dgi-fr source : Direction Générale des Impôts - Cadastre ; mise à jour : 2008"
      },
      "geometry": {
        "type": "Point",
        "coordinates": [
          0.6813393,
          47.3947528
        ]
      },
      "id": "node/454164674"
    },
    {
      "type": "Feature",
      "properties": {
        "@id": "node/454601106",
        "amenity": "bar"
      },
      "geometry": {
        "type": "Point",
        "coordinates": [
          2.0706646,
          49.4192731
        ]
      },
      "id": "node/454601106"
    },
    {
      "type": "Feature",
      "properties": {
        "@id": "node/456036524",
        "addr:housenumber": "4",
        "addr:postcode": "37000",
        "addr:street": "Rue du Change",
        "amenity": "bar",
        "name": "Gilles Pillaut",
        "source": "cadastre-dgi-fr source : Direction Générale des Impôts - Cadastre ; mise à jour : 2008"
      },
      "geometry": {
        "type": "Point",
        "coordinates": [
          0.6820231,
          47.3940909
        ]
      },
      "id": "node/456036524"
    },
    {
      "type": "Feature",
      "properties": {
        "@id": "node/456930717",
        "addr:housenumber": "2",
        "addr:postcode": "37000",
        "addr:street": "Rue des Fusillés",
        "amenity": "bar",
        "name": "Le Bachata",
        "source": "cadastre-dgi-fr source : Direction Générale des Impôts - Cadastre ; mise à jour : 2008"
      },
      "geometry": {
        "type": "Point",
        "coordinates": [
          0.6856667,
          47.3950415
        ]
      },
      "id": "node/456930717"
    },
    {
      "type": "Feature",
      "properties": {
        "@id": "node/458422223",
        "amenity": "bar"
      },
      "geometry": {
        "type": "Point",
        "coordinates": [
          1.5774763,
          48.5864346
        ]
      },
      "id": "node/458422223"
    },
    {
      "type": "Feature",
      "properties": {
        "@id": "node/458422241",
        "amenity": "bar"
      },
      "geometry": {
        "type": "Point",
        "coordinates": [
          1.577569,
          48.5867677
        ]
      },
      "id": "node/458422241"
    },
    {
      "type": "Feature",
      "properties": {
        "@id": "node/458424249",
        "amenity": "bar",
        "name": "Le Narval",
        "tickets:public_transport": "yes"
      },
      "geometry": {
        "type": "Point",
        "coordinates": [
          1.5777834,
          48.5878382
        ]
      },
      "id": "node/458424249"
    },
    {
      "type": "Feature",
      "properties": {
        "@id": "node/460990173",
        "addr:housenumber": "7",
        "addr:postcode": "45140",
        "addr:street": "Place de la Mairie",
        "amenity": "bar",
        "name": "Le Relax",
        "shop": "beverages"
      },
      "geometry": {
        "type": "Point",
        "coordinates": [
          1.8277984,
          47.9195625
        ]
      },
      "id": "node/460990173"
    },
    {
      "type": "Feature",
      "properties": {
        "@id": "node/467699469",
        "amenity": "bar"
      },
      "geometry": {
        "type": "Point",
        "coordinates": [
          4.7112695,
          49.8776628
        ]
      },
      "id": "node/467699469"
    },
    {
      "type": "Feature",
      "properties": {
        "@id": "node/470994356",
        "amenity": "bar",
        "wheelchair": "yes"
      },
      "geometry": {
        "type": "Point",
        "coordinates": [
          0.7163887,
          49.8698228
        ]
      },
      "id": "node/470994356"
    },
    {
      "type": "Feature",
      "properties": {
        "@id": "node/474696199",
        "amenity": "bar",
        "brewery": "Affligem;1664",
        "name": "L'instant"
      },
      "geometry": {
        "type": "Point",
        "coordinates": [
          2.0413548,
          48.9286829
        ]
      },
      "id": "node/474696199"
    },
    {
      "type": "Feature",
      "properties": {
        "@id": "node/475535824",
        "amenity": "bar"
      },
      "geometry": {
        "type": "Point",
        "coordinates": [
          0.6845746,
          48.1921842
        ]
      },
      "id": "node/475535824"
    },
    {
      "type": "Feature",
      "properties": {
        "@id": "node/475536309",
        "amenity": "bar"
      },
      "geometry": {
        "type": "Point",
        "coordinates": [
          0.5921341,
          48.2214208
        ]
      },
      "id": "node/475536309"
    },
    {
      "type": "Feature",
      "properties": {
        "@id": "node/482754817",
        "amenity": "bar",
        "name": "Le Royal"
      },
      "geometry": {
        "type": "Point",
        "coordinates": [
          -0.1815743,
          49.1825111
        ]
      },
      "id": "node/482754817"
    },
    {
      "type": "Feature",
      "properties": {
        "@id": "node/493163514",
        "amenity": "bar",
        "brewery": "Affligem;Edelweiss;pelforth;Bière de Bourges",
        "internet_access": "wlan",
        "name": "Les pères populaires"
      },
      "geometry": {
        "type": "Point",
        "coordinates": [
          2.4018663,
          48.8510126
        ]
      },
      "id": "node/493163514"
    },
    {
      "type": "Feature",
      "properties": {
        "@id": "node/493761019",
        "amenity": "bar",
        "name": "Le Jean Bart"
      },
      "geometry": {
        "type": "Point",
        "coordinates": [
          2.401582,
          48.8517859
        ]
      },
      "id": "node/493761019"
    },
    {
      "type": "Feature",
      "properties": {
        "@id": "node/494663867",
        "amenity": "bar",
        "name": "Losserand Café"
      },
      "geometry": {
        "type": "Point",
        "coordinates": [
          2.3181857,
          48.8338366
        ]
      },
      "id": "node/494663867"
    },
    {
      "type": "Feature",
      "properties": {
        "@id": "node/497776508",
        "amenity": "bar",
        "name": "Bar de l'Hôtel de Ville",
        "source": "cadastre-dgi-fr source : Direction Générale des Impôts - Cadastre ; mise à jour : 2009"
      },
      "geometry": {
        "type": "Point",
        "coordinates": [
          3.2183198,
          49.6154928
        ]
      },
      "id": "node/497776508"
    },
    {
      "type": "Feature",
      "properties": {
        "@id": "node/498836529",
        "amenity": "bar",
        "name": "Le Raymus' Bar",
        "source": "local knowledge"
      },
      "geometry": {
        "type": "Point",
        "coordinates": [
          2.1571674,
          48.9004918
        ]
      },
      "id": "node/498836529"
    },
    {
      "type": "Feature",
      "properties": {
        "@id": "node/498837484",
        "amenity": "bar"
      },
      "geometry": {
        "type": "Point",
        "coordinates": [
          2.1567481,
          48.9029653
        ]
      },
      "id": "node/498837484"
    },
    {
      "type": "Feature",
      "properties": {
        "@id": "node/498913739",
        "amenity": "bar",
        "name": "Blue Note"
      },
      "geometry": {
        "type": "Point",
        "coordinates": [
          2.3464815,
          48.8867306
        ]
      },
      "id": "node/498913739"
    },
    {
      "type": "Feature",
      "properties": {
        "@id": "node/500863590",
        "amenity": "bar"
      },
      "geometry": {
        "type": "Point",
        "coordinates": [
          0.9383024,
          49.2655397
        ]
      },
      "id": "node/500863590"
    },
    {
      "type": "Feature",
      "properties": {
        "@id": "node/501609006",
        "amenity": "bar",
        "name": "Le Maupassant",
        "source": "local knowledge"
      },
      "geometry": {
        "type": "Point",
        "coordinates": [
          2.1558602,
          48.901685
        ]
      },
      "id": "node/501609006"
    },
    {
      "type": "Feature",
      "properties": {
        "@id": "node/508588152",
        "addr:city": "Paris 11eme Arrondissement",
        "addr:housenumber": "1",
        "addr:postcode": "75011",
        "addr:street": "Rue de la Forge Royale",
        "amenity": "bar",
        "name": "Red House",
        "opening_hours": "Mo-Su 17:00-02-00",
        "phone": "+33 1 43 67 06 43",
        "smoking": "no"
      },
      "geometry": {
        "type": "Point",
        "coordinates": [
          2.3800998,
          48.8506131
        ]
      },
      "id": "node/508588152"
    },
    {
      "type": "Feature",
      "properties": {
        "@id": "node/509294251",
        "amenity": "bar",
        "cuisine": "french",
        "name": "Café du midi"
      },
      "geometry": {
        "type": "Point",
        "coordinates": [
          1.0655418,
          47.7912603
        ]
      },
      "id": "node/509294251"
    },
    {
      "type": "Feature",
      "properties": {
        "@id": "node/519049977",
        "amenity": "bar",
        "name": "Le bistrot de Juliette"
      },
      "geometry": {
        "type": "Point",
        "coordinates": [
          2.4005135,
          48.8345868
        ]
      },
      "id": "node/519049977"
    },
    {
      "type": "Feature",
      "properties": {
        "@id": "node/519049990",
        "amenity": "bar",
        "name": "Le diplomate",
        "opening_hours": "Mo-Fr 07:00-20:30; Su 09:00-20:30",
        "wheelchair": "limited"
      },
      "geometry": {
        "type": "Point",
        "coordinates": [
          2.4007736,
          48.834455
        ]
      },
      "id": "node/519049990"
    },
    {
      "type": "Feature",
      "properties": {
        "@id": "node/530272890",
        "amenity": "bar",
        "name": "Chez Habibi",
        "opening_hours": "Mo-Su 17:00-02:00"
      },
      "geometry": {
        "type": "Point",
        "coordinates": [
          2.375025,
          48.8493959
        ]
      },
      "id": "node/530272890"
    },
    {
      "type": "Feature",
      "properties": {
        "@id": "node/530272911",
        "amenity": "bar",
        "name": "Flute Gana"
      },
      "geometry": {
        "type": "Point",
        "coordinates": [
          2.3723704,
          48.8464256
        ]
      },
      "id": "node/530272911"
    },
    {
      "type": "Feature",
      "properties": {
        "@id": "node/534660992",
        "amenity": "bar",
        "name": "Botak",
        "source": "ground"
      },
      "geometry": {
        "type": "Point",
        "coordinates": [
          2.344949,
          48.8864916
        ]
      },
      "id": "node/534660992"
    },
    {
      "type": "Feature",
      "properties": {
        "@id": "node/534916367",
        "amenity": "bar"
      },
      "geometry": {
        "type": "Point",
        "coordinates": [
          4.9557097,
          50.2113745
        ]
      },
      "id": "node/534916367"
    },
    {
      "type": "Feature",
      "properties": {
        "@id": "node/539533571",
        "amenity": "bar",
        "name": "Les Arcades"
      },
      "geometry": {
        "type": "Point",
        "coordinates": [
          2.1004801,
          49.0482176
        ]
      },
      "id": "node/539533571"
    },
    {
      "type": "Feature",
      "properties": {
        "@id": "node/540158434",
        "amenity": "bar",
        "name": "Bijou Bar"
      },
      "geometry": {
        "type": "Point",
        "coordinates": [
          2.0925853,
          49.0490402
        ]
      },
      "id": "node/540158434"
    },
    {
      "type": "Feature",
      "properties": {
        "@id": "node/540176743",
        "amenity": "bar",
        "name": "Bar Moderne",
        "wheelchair": "yes"
      },
      "geometry": {
        "type": "Point",
        "coordinates": [
          2.092414,
          49.0497553
        ]
      },
      "id": "node/540176743"
    },
    {
      "type": "Feature",
      "properties": {
        "@id": "node/540914260",
        "amenity": "bar",
        "name": "Le Fontenoy",
        "shop": "tobacco"
      },
      "geometry": {
        "type": "Point",
        "coordinates": [
          2.0998346,
          49.0497595
        ]
      },
      "id": "node/540914260"
    },
    {
      "type": "Feature",
      "properties": {
        "@id": "node/540923631",
        "amenity": "bar",
        "name": "Le Celtique",
        "shop": "tobacco"
      },
      "geometry": {
        "type": "Point",
        "coordinates": [
          2.1019647,
          49.0490367
        ]
      },
      "id": "node/540923631"
    },
    {
      "type": "Feature",
      "properties": {
        "@id": "node/544477783",
        "amenity": "bar",
        "name": "Le Champêtre"
      },
      "geometry": {
        "type": "Point",
        "coordinates": [
          0.8493807,
          49.8626692
        ]
      },
      "id": "node/544477783"
    },
    {
      "type": "Feature",
      "properties": {
        "@id": "node/544477895",
        "amenity": "bar",
        "name": "Bar Le Doris"
      },
      "geometry": {
        "type": "Point",
        "coordinates": [
          0.8876083,
          49.8651313
        ]
      },
      "id": "node/544477895"
    },
    {
      "type": "Feature",
      "properties": {
        "@id": "node/544898825",
        "amenity": "bar",
        "name": "Le Flash"
      },
      "geometry": {
        "type": "Point",
        "coordinates": [
          2.0978795,
          49.0511253
        ]
      },
      "id": "node/544898825"
    },
    {
      "type": "Feature",
      "properties": {
        "@id": "node/546568935",
        "amenity": "bar",
        "name": "Au Maryland",
        "shop": "kiosk"
      },
      "geometry": {
        "type": "Point",
        "coordinates": [
          2.0966183,
          49.0518324
        ]
      },
      "id": "node/546568935"
    },
    {
      "type": "Feature",
      "properties": {
        "@id": "node/546884325",
        "addr:city": "Argenteuil",
        "addr:country": "FR",
        "addr:housenumber": "20",
        "addr:postcode": "95100",
        "addr:street": "Rue de la Justice",
        "amenity": "bar",
        "name": "Chez Bragança",
        "opening_hours": "Mo-Su 07:00-21:00",
        "phone": "+33 1 30 25 30 85",
        "smoking": "outside"
      },
      "geometry": {
        "type": "Point",
        "coordinates": [
          2.2164397,
          48.9392173
        ]
      },
      "id": "node/546884325"
    },
    {
      "type": "Feature",
      "properties": {
        "@id": "node/549888989",
        "addr:housenumber": "106",
        "addr:postcode": "37000",
        "addr:street": "Rue Colbert",
        "amenity": "bar",
        "name": "Le Gros Bar",
        "note": "Bitcoin accepted here",
        "payment:bitcoin": "yes",
        "source": "cadastre-dgi-fr source : Direction Générale des Impôts - Cadastre;mise à jour : 2008"
      },
      "geometry": {
        "type": "Point",
        "coordinates": [
          0.691889,
          47.3961491
        ]
      },
      "id": "node/549888989"
    },
    {
      "type": "Feature",
      "properties": {
        "@id": "node/551435060",
        "amenity": "bar",
        "name": "L'Abri Côtier"
      },
      "geometry": {
        "type": "Point",
        "coordinates": [
          0.0938163,
          49.4962794
        ]
      },
      "id": "node/551435060"
    },
    {
      "type": "Feature",
      "properties": {
        "@id": "node/553539696",
        "amenity": "bar",
        "name": "Le Paul Bert"
      },
      "geometry": {
        "type": "Point",
        "coordinates": [
          2.481045,
          48.8399557
        ]
      },
      "id": "node/553539696"
    },
    {
      "type": "Feature",
      "properties": {
        "@id": "node/553539863",
        "amenity": "bar",
        "name": "Le Chemin de Fer"
      },
      "geometry": {
        "type": "Point",
        "coordinates": [
          2.4931695,
          48.8384839
        ]
      },
      "id": "node/553539863"
    },
    {
      "type": "Feature",
      "properties": {
        "@id": "node/559709269",
        "addr:housenumber": "11",
        "amenity": "bar",
        "name": "Bar de la Mairie",
        "source": "cadastre-dgi-fr source : Direction Générale des Impôts - Cadastre ; mise à jour : 2009"
      },
      "geometry": {
        "type": "Point",
        "coordinates": [
          2.0999592,
          49.0504279
        ]
      },
      "id": "node/559709269"
    },
    {
      "type": "Feature",
      "properties": {
        "@id": "node/560838202",
        "addr:housenumber": "4",
        "amenity": "bar",
        "name": "Le Marigny",
        "source": "cadastre-dgi-fr source : Direction Générale des Impôts - Cadastre ; mise à jour : 2009"
      },
      "geometry": {
        "type": "Point",
        "coordinates": [
          2.0953718,
          49.0477136
        ]
      },
      "id": "node/560838202"
    },
    {
      "type": "Feature",
      "properties": {
        "@id": "node/566834882",
        "amenity": "bar"
      },
      "geometry": {
        "type": "Point",
        "coordinates": [
          1.1121084,
          49.442233
        ]
      },
      "id": "node/566834882"
    },
    {
      "type": "Feature",
      "properties": {
        "@id": "node/568454764",
        "amenity": "bar",
        "cuisine": "chinese",
        "name": "Chez Chen"
      },
      "geometry": {
        "type": "Point",
        "coordinates": [
          2.380134,
          48.8919041
        ]
      },
      "id": "node/568454764"
    },
    {
      "type": "Feature",
      "properties": {
        "@id": "node/568457895",
        "amenity": "bar"
      },
      "geometry": {
        "type": "Point",
        "coordinates": [
          2.3820001,
          48.8906427
        ]
      },
      "id": "node/568457895"
    },
    {
      "type": "Feature",
      "properties": {
        "@id": "node/568458031",
        "amenity": "bar",
        "name": "Le Bergerac"
      },
      "geometry": {
        "type": "Point",
        "coordinates": [
          2.3819203,
          48.8909556
        ]
      },
      "id": "node/568458031"
    },
    {
      "type": "Feature",
      "properties": {
        "@id": "node/568459562",
        "amenity": "bar",
        "brewery": "tripel_karmeliet",
        "name": "Mama Kin",
        "wheelchair": "limited"
      },
      "geometry": {
        "type": "Point",
        "coordinates": [
          2.3833861,
          48.8895378
        ]
      },
      "id": "node/568459562"
    },
    {
      "type": "Feature",
      "properties": {
        "@id": "node/594054765",
        "addr:housenumber": "24",
        "addr:street": "Rue Duméril",
        "amenity": "bar",
        "brewery": "leffe;faro;Barbãr Bok;Queue De Charrue Ambrée",
        "internet_access": "no",
        "name": "La Fût Gueuze"
      },
      "geometry": {
        "type": "Point",
        "coordinates": [
          2.358319,
          48.8363055
        ]
      },
      "id": "node/594054765"
    },
    {
      "type": "Feature",
      "properties": {
        "@id": "node/594785582",
        "amenity": "bar",
        "name": "Le Shaker"
      },
      "geometry": {
        "type": "Point",
        "coordinates": [
          0.983723,
          47.4153688
        ]
      },
      "id": "node/594785582"
    },
    {
      "type": "Feature",
      "properties": {
        "@id": "node/599513255",
        "addr:city": "Paris",
        "addr:housenumber": "17",
        "addr:postcode": "75004",
        "addr:street": "Rue des Archives",
        "amenity": "bar",
        "name": "Open Café",
        "survey:date": "2017-07-05"
      },
      "geometry": {
        "type": "Point",
        "coordinates": [
          2.3550423,
          48.8584562
        ]
      },
      "id": "node/599513255"
    },
    {
      "type": "Feature",
      "properties": {
        "@id": "node/599513533",
        "amenity": "bar",
        "name": "Cox",
        "smoking": "outside"
      },
      "geometry": {
        "type": "Point",
        "coordinates": [
          2.3548214,
          48.8582377
        ]
      },
      "id": "node/599513533"
    },
    {
      "type": "Feature",
      "properties": {
        "@id": "node/599514189",
        "amenity": "bar",
        "name": "Le Central",
        "shop": "jewelry"
      },
      "geometry": {
        "type": "Point",
        "coordinates": [
          2.357564,
          48.857653
        ]
      },
      "id": "node/599514189"
    },
    {
      "type": "Feature",
      "properties": {
        "@id": "node/599514799",
        "amenity": "bar",
        "name": "Le Raidd"
      },
      "geometry": {
        "type": "Point",
        "coordinates": [
          2.3534861,
          48.8589115
        ]
      },
      "id": "node/599514799"
    },
    {
      "type": "Feature",
      "properties": {
        "@id": "node/599514897",
        "amenity": "bar",
        "name": "Terres de Café"
      },
      "geometry": {
        "type": "Point",
        "coordinates": [
          2.3549664,
          48.8598365
        ]
      },
      "id": "node/599514897"
    },
    {
      "type": "Feature",
      "properties": {
        "@id": "node/599514968",
        "amenity": "bar",
        "name": "QG"
      },
      "geometry": {
        "type": "Point",
        "coordinates": [
          2.3534175,
          48.860252
        ]
      },
      "id": "node/599514968"
    },
    {
      "type": "Feature",
      "properties": {
        "@id": "node/599515061",
        "amenity": "bar",
        "name": "Quetzal Bar"
      },
      "geometry": {
        "type": "Point",
        "coordinates": [
          2.3552063,
          48.8572153
        ]
      },
      "id": "node/599515061"
    },
    {
      "type": "Feature",
      "properties": {
        "@id": "node/608868581",
        "amenity": "bar",
        "name": "Le Fontenoy",
        "old_name": "Aux Caves d'Algérie",
        "opening_hours": "Mo-Sa 07:00-20:00; Su 07:00-14:00",
        "source": "survey;knowledge",
        "wheelchair": "no"
      },
      "geometry": {
        "type": "Point",
        "coordinates": [
          2.195106,
          48.8903929
        ]
      },
      "id": "node/608868581"
    },
    {
      "type": "Feature",
      "properties": {
        "@id": "node/608913074",
        "addr:housenumber": "13",
        "addr:street": "Rue du Marché",
        "amenity": "bar",
        "name": "Bar Bleu",
        "phone": "+33147211342",
        "source": "survey",
        "wheelchair": "limited"
      },
      "geometry": {
        "type": "Point",
        "coordinates": [
          2.1950098,
          48.8897816
        ]
      },
      "id": "node/608913074"
    },
    {
      "type": "Feature",
      "properties": {
        "@id": "node/610541416",
        "amenity": "bar",
        "source": "survey"
      },
      "geometry": {
        "type": "Point",
        "coordinates": [
          2.1932717,
          48.8978708
        ]
      },
      "id": "node/610541416"
    },
    {
      "type": "Feature",
      "properties": {
        "@id": "node/616313223",
        "amenity": "bar",
        "name": "Bar-Tabac de la Gare"
      },
      "geometry": {
        "type": "Point",
        "coordinates": [
          2.4618564,
          48.7078246
        ]
      },
      "id": "node/616313223"
    },
    {
      "type": "Feature",
      "properties": {
        "@id": "node/617928936",
        "amenity": "bar",
        "brewery": "Guinness",
        "name": "La Venus Noire"
      },
      "geometry": {
        "type": "Point",
        "coordinates": [
          2.3428569,
          48.8536005
        ]
      },
      "id": "node/617928936"
    },
    {
      "type": "Feature",
      "properties": {
        "@id": "node/619005671",
        "amenity": "bar",
        "name": "CSP Bar"
      },
      "geometry": {
        "type": "Point",
        "coordinates": [
          3.0853918,
          50.3722496
        ]
      },
      "id": "node/619005671"
    },
    {
      "type": "Feature",
      "properties": {
        "@id": "node/625703691",
        "amenity": "bar",
        "name": "Le Bureau"
      },
      "geometry": {
        "type": "Point",
        "coordinates": [
          0.6897098,
          47.3893865
        ]
      },
      "id": "node/625703691"
    },
    {
      "type": "Feature",
      "properties": {
        "@id": "node/625703708",
        "amenity": "bar",
        "name": "Le Palais"
      },
      "geometry": {
        "type": "Point",
        "coordinates": [
          0.6888055,
          47.3892109
        ]
      },
      "id": "node/625703708"
    },
    {
      "type": "Feature",
      "properties": {
        "@id": "node/628344607",
        "amenity": "bar"
      },
      "geometry": {
        "type": "Point",
        "coordinates": [
          2.1958647,
          48.8958065
        ]
      },
      "id": "node/628344607"
    },
    {
      "type": "Feature",
      "properties": {
        "@id": "node/628365029",
        "amenity": "bar",
        "name": "Le Verseau"
      },
      "geometry": {
        "type": "Point",
        "coordinates": [
          2.1969335,
          48.8962529
        ]
      },
      "id": "node/628365029"
    },
    {
      "type": "Feature",
      "properties": {
        "@id": "node/629665565",
        "addr:city": "Paris",
        "addr:country": "FR",
        "addr:housenumber": "10",
        "addr:postcode": "75018",
        "addr:street": "Rue Hégésippe Moreau",
        "amenity": "bar",
        "name": "Karambole cafe",
        "source": "cadastre-dgi-fr source : Direction Générale des Impôts - Cadastre ; mise à jour : 2010",
        "wifi": "yes"
      },
      "geometry": {
        "type": "Point",
        "coordinates": [
          2.327201,
          48.887279
        ]
      },
      "id": "node/629665565"
    },
    {
      "type": "Feature",
      "properties": {
        "@id": "node/632929886",
        "amenity": "bar",
        "name": "Le Bon Coin II",
        "old_name": "Lou Tournoli"
      },
      "geometry": {
        "type": "Point",
        "coordinates": [
          2.1868356,
          48.8972838
        ]
      },
      "id": "node/632929886"
    },
    {
      "type": "Feature",
      "properties": {
        "@id": "node/633017879",
        "amenity": "bar",
        "name": "L'Imprévu"
      },
      "geometry": {
        "type": "Point",
        "coordinates": [
          2.1885476,
          48.8962499
        ]
      },
      "id": "node/633017879"
    },
    {
      "type": "Feature",
      "properties": {
        "@id": "node/633860388",
        "amenity": "bar",
        "description": "Auparavant fut le Bar Restaurant Hôtel \"Au bon accueil\"",
        "name": "Grutli à la Pression; L'Alternative",
        "source": "survey;knowledge"
      },
      "geometry": {
        "type": "Point",
        "coordinates": [
          2.1884193,
          48.8911374
        ]
      },
      "id": "node/633860388"
    },
    {
      "type": "Feature",
      "properties": {
        "@id": "node/634659916",
        "amenity": "bar"
      },
      "geometry": {
        "type": "Point",
        "coordinates": [
          2.2092483,
          48.8988859
        ]
      },
      "id": "node/634659916"
    },
    {
      "type": "Feature",
      "properties": {
        "@id": "node/639048722",
        "amenity": "bar",
        "name": "Bar Restaurant \" Le 202\"",
        "source": "survey 2015",
        "wheelchair": "no"
      },
      "geometry": {
        "type": "Point",
        "coordinates": [
          2.1820276,
          48.899828
        ]
      },
      "id": "node/639048722"
    },
    {
      "type": "Feature",
      "properties": {
        "@id": "node/639689281",
        "amenity": "bar",
        "name": "Le Monté-Christo"
      },
      "geometry": {
        "type": "Point",
        "coordinates": [
          1.3452542,
          48.8254624
        ]
      },
      "id": "node/639689281"
    },
    {
      "type": "Feature",
      "properties": {
        "@id": "node/640569419",
        "amenity": "bar",
        "lottery": "yes",
        "name": "La Gagnotte",
        "note:fr": "Bar - Café - loto",
        "old_name": "Chez Marco",
        "wheelchair": "limited"
      },
      "geometry": {
        "type": "Point",
        "coordinates": [
          2.1948948,
          48.8909156
        ]
      },
      "id": "node/640569419"
    },
    {
      "type": "Feature",
      "properties": {
        "@id": "node/640569423",
        "amenity": "bar",
        "email": "lapostrophe92@gmail.com",
        "name": "L'Apostrophe",
        "note:fr": "Changement de nom 16 dec 2013",
        "old_name": "Le Point Central",
        "opening_hours": "Mo-Sa 07:00-23:00; Su 08:00-16:00",
        "outdoor_seating": "yes",
        "phone": "+33147211183",
        "source": "survey 2013",
        "website": "http://www.lapostrophe-cafe.fr/"
      },
      "geometry": {
        "type": "Point",
        "coordinates": [
          2.1949244,
          48.8910387
        ]
      },
      "id": "node/640569423"
    },
    {
      "type": "Feature",
      "properties": {
        "@id": "node/640610787",
        "amenity": "bar",
        "name": "Au Petit bar",
        "opening_hours": "Mo 00:00-02:00; Tu 13:00-24:00; We-Su 00:00-02:00,13:00-24:00",
        "source": "survey",
        "wheelchair": "no"
      },
      "geometry": {
        "type": "Point",
        "coordinates": [
          2.1972307,
          48.8898846
        ]
      },
      "id": "node/640610787"
    },
    {
      "type": "Feature",
      "properties": {
        "@id": "node/640616933",
        "amenity": "bar",
        "brewery": "pelforth",
        "cuisine": "portuguese",
        "name": "Le Petit Clement",
        "note:fr": "Bar, Brasserie, Restaurant, spécialités Portugaises",
        "phone": "+33147259248",
        "source": "survey 2014;knowledge"
      },
      "geometry": {
        "type": "Point",
        "coordinates": [
          2.1977443,
          48.889645
        ]
      },
      "id": "node/640616933"
    },
    {
      "type": "Feature",
      "properties": {
        "@id": "node/640616938",
        "amenity": "bar",
        "name": "Bar Breton",
        "opening_hours": "Mo-Sa 08:00-21:00+; Su 08:00-15:00",
        "outdoor_seating": "yes",
        "phone": "+33147253620",
        "source": "survey 2016"
      },
      "geometry": {
        "type": "Point",
        "coordinates": [
          2.1977544,
          48.8898553
        ]
      },
      "id": "node/640616938"
    },
    {
      "type": "Feature",
      "properties": {
        "@id": "node/640635591",
        "amenity": "bar",
        "name": "Royal de la Boule",
        "note:fr": "Café, Bar, Brasserie",
        "old_name": "Café Tabac de la Boule",
        "source": "knowledge;survey"
      },
      "geometry": {
        "type": "Point",
        "coordinates": [
          2.2007793,
          48.8867262
        ]
      },
      "id": "node/640635591"
    },
    {
      "type": "Feature",
      "properties": {
        "@id": "node/640635594",
        "amenity": "bar",
        "name": "Tabac de la Boule",
        "old_name": "Lequo Vadis",
        "source": "survey"
      },
      "geometry": {
        "type": "Point",
        "coordinates": [
          2.2011169,
          48.8868819
        ]
      },
      "id": "node/640635594"
    },
    {
      "type": "Feature",
      "properties": {
        "@id": "node/640691402",
        "amenity": "bar",
        "fax": "+33147215391",
        "name": "L'Acacia",
        "note:fr": "Bar Hotel Restaurant",
        "phone": "+33147254655",
        "source": "survey 2013;knowledge",
        "tourism": "hotel",
        "website": "http://www.lacacia.fr/",
        "website:menu": "http://www.lacacia.fr/openmenu/la-carte/"
      },
      "geometry": {
        "type": "Point",
        "coordinates": [
          2.2087546,
          48.8866553
        ]
      },
      "id": "node/640691402"
    },
    {
      "type": "Feature",
      "properties": {
        "@id": "node/648233605",
        "amenity": "bar",
        "name": "Le Zola",
        "wheelchair": "no"
      },
      "geometry": {
        "type": "Point",
        "coordinates": [
          2.2098725,
          48.8944133
        ]
      },
      "id": "node/648233605"
    },
    {
      "type": "Feature",
      "properties": {
        "@id": "node/648581485",
        "amenity": "bar",
        "description": "Bar Brasserie Tabac Journaux Loto",
        "name": "Le Balto",
        "old_name": "À La Porte St Denis; À La Place St Denis"
      },
      "geometry": {
        "type": "Point",
        "coordinates": [
          2.1998133,
          48.8916569
        ]
      },
      "id": "node/648581485"
    },
    {
      "type": "Feature",
      "properties": {
        "@id": "node/648616283",
        "amenity": "bar",
        "description": "Bar Brasserie Restaurant",
        "name": "Aux Trois Maronniers",
        "opening_hours": "Mo-Sa 07:30-20:00",
        "phone": "+33147212748",
        "source": "survey"
      },
      "geometry": {
        "type": "Point",
        "coordinates": [
          2.204374,
          48.8929806
        ]
      },
      "id": "node/648616283"
    },
    {
      "type": "Feature",
      "properties": {
        "@id": "node/656384950",
        "addr:housenumber": "47",
        "addr:street": "Rue Ernest Renan",
        "amenity": "bar",
        "name": "Le Moulin Allard"
      },
      "geometry": {
        "type": "Point",
        "coordinates": [
          2.186948,
          48.894782
        ]
      },
      "id": "node/656384950"
    },
    {
      "type": "Feature",
      "properties": {
        "@id": "node/664192403",
        "amenity": "bar"
      },
      "geometry": {
        "type": "Point",
        "coordinates": [
          2.2022088,
          49.0021183
        ]
      },
      "id": "node/664192403"
    },
    {
      "type": "Feature",
      "properties": {
        "@id": "node/667305411",
        "amenity": "bar",
        "brewery": "Amstel;H-Beer;Leffe",
        "name": "Le Rota"
      },
      "geometry": {
        "type": "Point",
        "coordinates": [
          2.3895178,
          48.8503838
        ]
      },
      "id": "node/667305411"
    },
    {
      "type": "Feature",
      "properties": {
        "@id": "node/676028807",
        "amenity": "bar",
        "name": "Le Lescot"
      },
      "geometry": {
        "type": "Point",
        "coordinates": [
          2.3889995,
          48.8753301
        ]
      },
      "id": "node/676028807"
    },
    {
      "type": "Feature",
      "properties": {
        "@id": "node/677967483",
        "addr:city": "Paris",
        "addr:housenumber": "64",
        "addr:postcode": "75001",
        "addr:street": "Rue des Lombards",
        "amenity": "bar",
        "brewery": "yes",
        "name": "Au Diable des Lombards",
        "opening_hours": "Mo-Su 08:00-02:00",
        "outdoor_seating": "yes",
        "payment:cash": "yes",
        "payment:credit_cards": "yes",
        "payment:debit_cards": "yes",
        "payment:visa": "yes",
        "smoking": "no",
        "source": "cadastre-dgi-fr source : Direction Générale des Impôts - Cadastre. Mise à jour : 2010"
      },
      "geometry": {
        "type": "Point",
        "coordinates": [
          2.3475059,
          48.859895
        ]
      },
      "id": "node/677967483"
    },
    {
      "type": "Feature",
      "properties": {
        "@id": "node/678029796",
        "addr:housenumber": "71",
        "addr:street": "Rue Saint-Honoré",
        "amenity": "bar",
        "brewery": "Guinness;Kronenbourg;1664;Grimbergen;Carlsberg",
        "name": "Le Bar des Halles",
        "source": "cadastre-dgi-fr source : Direction Générale des Impôts - Cadastre. Mise à jour : 2010"
      },
      "geometry": {
        "type": "Point",
        "coordinates": [
          2.3442771,
          48.8611078
        ]
      },
      "id": "node/678029796"
    },
    {
      "type": "Feature",
      "properties": {
        "@id": "node/678334270",
        "amenity": "bar",
        "shop": "newsagent"
      },
      "geometry": {
        "type": "Point",
        "coordinates": [
          0.7065852,
          49.0113151
        ]
      },
      "id": "node/678334270"
    },
    {
      "type": "Feature",
      "properties": {
        "@id": "node/679414266",
        "addr:city": "Paris",
        "addr:housenumber": "143",
        "addr:street": "Rue Saint-Honoré",
        "amenity": "bar",
        "name": "L'Oratoire",
        "source": "cadastre-dgi-fr source : Direction Générale des Impôts - Cadastre. Mise à jour : 2010"
      },
      "geometry": {
        "type": "Point",
        "coordinates": [
          2.3406029,
          48.8617693
        ]
      },
      "id": "node/679414266"
    },
    {
      "type": "Feature",
      "properties": {
        "@id": "node/681315248",
        "addr:housenumber": "58",
        "addr:street": "Rue Jean-Jacques Rousseau",
        "amenity": "bar",
        "name": "Le Ballroom du Beefclub",
        "source": "cadastre-dgi-fr source : Direction Générale des Impôts - Cadastre. Mise à jour : 2010"
      },
      "geometry": {
        "type": "Point",
        "coordinates": [
          2.3435073,
          48.8639692
        ]
      },
      "id": "node/681315248"
    },
    {
      "type": "Feature",
      "properties": {
        "@id": "node/681479170",
        "amenity": "bar",
        "name": "Le Nustrale",
        "source": "cadastre-dgi-fr source : Direction Générale des Impôts - Cadastre. Mise à jour : 2010"
      },
      "geometry": {
        "type": "Point",
        "coordinates": [
          2.3408552,
          48.8646538
        ]
      },
      "id": "node/681479170"
    },
    {
      "type": "Feature",
      "properties": {
        "@id": "node/683283114",
        "addr:housenumber": "10",
        "addr:street": "Rue du Marché Saint-Honoré",
        "amenity": "bar",
        "name": "Le Rubis",
        "name:fr": "Le Rubis",
        "source": "cadastre-dgi-fr source : Direction Générale des Impôts - Cadastre. Mise à jour : 2010"
      },
      "geometry": {
        "type": "Point",
        "coordinates": [
          2.3313684,
          48.8662382
        ]
      },
      "id": "node/683283114"
    },
    {
      "type": "Feature",
      "properties": {
        "@id": "node/685604405",
        "amenity": "bar",
        "name": "Le Gaillon",
        "source": "cadastre-dgi-fr source : Direction Générale des Impôts - Cadastre. Mise à jour : 2010",
        "tobacco": "yes"
      },
      "geometry": {
        "type": "Point",
        "coordinates": [
          2.3345642,
          48.868971
        ]
      },
      "id": "node/685604405"
    },
    {
      "type": "Feature",
      "properties": {
        "@id": "node/687029204",
        "addr:housenumber": "19",
        "addr:street": "Rue de Choiseul",
        "amenity": "bar",
        "name": "Chez Xala",
        "name:fr": "Chez Xala",
        "source": "cadastre-dgi-fr source : Direction Générale des Impôts - Cadastre. Mise à jour : 2010"
      },
      "geometry": {
        "type": "Point",
        "coordinates": [
          2.3359056,
          48.870302
        ]
      },
      "id": "node/687029204"
    },
    {
      "type": "Feature",
      "properties": {
        "@id": "node/687096685",
        "addr:housenumber": "2",
        "addr:street": "Rue de Marivaux",
        "amenity": "bar",
        "gay": "yes",
        "name": "Alex's Bar",
        "source": "cadastre-dgi-fr source : Direction Générale des Impôts - Cadastre. Mise à jour : 2010",
        "website": "http://www.alex-s-bar.com"
      },
      "geometry": {
        "type": "Point",
        "coordinates": [
          2.3373664,
          48.8704581
        ]
      },
      "id": "node/687096685"
    },
    {
      "type": "Feature",
      "properties": {
        "@id": "node/687218426",
        "amenity": "bar",
        "name": "Le metropolitain",
        "wheelchair": "limited"
      },
      "geometry": {
        "type": "Point",
        "coordinates": [
          2.3841166,
          48.8115398
        ]
      },
      "id": "node/687218426"
    },
    {
      "type": "Feature",
      "properties": {
        "@id": "node/687750878",
        "amenity": "bar",
        "description": "Bar à Tapas",
        "name": "A. Noste",
        "source": "survey"
      },
      "geometry": {
        "type": "Point",
        "coordinates": [
          2.3392086,
          48.8691957
        ]
      },
      "id": "node/687750878"
    },
    {
      "type": "Feature",
      "properties": {
        "@id": "node/687751001",
        "amenity": "bar",
        "name": "Le Louis d'Or",
        "source": "cadastre-dgi-fr source : Direction Générale des Impôts - Cadastre. Mise à jour : 2010"
      },
      "geometry": {
        "type": "Point",
        "coordinates": [
          2.339716,
          48.8693708
        ]
      },
      "id": "node/687751001"
    },
    {
      "type": "Feature",
      "properties": {
        "@id": "node/687892841",
        "addr:housenumber": "53",
        "addr:street": "Rue Vivienne",
        "amenity": "bar",
        "name": "Chez Carmen",
        "name:fr": "Chez Carmen",
        "source": "cadastre-dgi-fr source : Direction Générale des Impôts - Cadastre. Mise à jour : 2010"
      },
      "geometry": {
        "type": "Point",
        "coordinates": [
          2.341399,
          48.8714668
        ]
      },
      "id": "node/687892841"
    },
    {
      "type": "Feature",
      "properties": {
        "@id": "node/689456582",
        "addr:housenumber": "13",
        "addr:street": "Rue du Croissant",
        "amenity": "bar",
        "name": "Le Macareux",
        "source": "cadastre-dgi-fr source : Direction Générale des Impôts - Cadastre. Mise à jour : 2010"
      },
      "geometry": {
        "type": "Point",
        "coordinates": [
          2.3442391,
          48.8688392
        ]
      },
      "id": "node/689456582"
    },
    {
      "type": "Feature",
      "properties": {
        "@id": "node/689543621",
        "addr:housenumber": "120",
        "addr:street": "Rue Montmartre",
        "amenity": "bar",
        "name": "The Lions",
        "source": "cadastre-dgi-fr source : Direction Générale des Impôts - Cadastre. Mise à jour : 2010"
      },
      "geometry": {
        "type": "Point",
        "coordinates": [
          2.3438772,
          48.8678019
        ]
      },
      "id": "node/689543621"
    },
    {
      "type": "Feature",
      "properties": {
        "@id": "node/690289617",
        "amenity": "bar",
        "name": "Le Longchamp"
      },
      "geometry": {
        "type": "Point",
        "coordinates": [
          2.3762969,
          48.6732024
        ]
      },
      "id": "node/690289617"
    },
    {
      "type": "Feature",
      "properties": {
        "@id": "node/691436463",
        "addr:housenumber": "21",
        "addr:postcode": "75002",
        "addr:street": "Rue Saint-Sauveur",
        "amenity": "bar",
        "name": "Avek",
        "opening_hours": "Mo-Sa 18:00-02:00",
        "source": "cadastre-dgi-fr source : Direction Générale des Impôts - Cadastre. Mise à jour : 2010"
      },
      "geometry": {
        "type": "Point",
        "coordinates": [
          2.3488784,
          48.865964
        ]
      },
      "id": "node/691436463"
    },
    {
      "type": "Feature",
      "properties": {
        "@id": "node/691742572",
        "addr:city": "Paris",
        "addr:country": "FR",
        "addr:housenumber": "178",
        "addr:street": "Rue Saint-Martin",
        "amenity": "bar",
        "gay:women": "yes",
        "name": "La Mutinerie",
        "opening_hours": "Mo-Su 17:00-02:00",
        "website": "http://www.lamutinerie.eu/"
      },
      "geometry": {
        "type": "Point",
        "coordinates": [
          2.3522237,
          48.8625665
        ]
      },
      "id": "node/691742572"
    },
    {
      "type": "Feature",
      "properties": {
        "@id": "node/694089988",
        "amenity": "bar",
        "name": "Bamboo bar"
      },
      "geometry": {
        "type": "Point",
        "coordinates": [
          2.5134634,
          48.7918217
        ]
      },
      "id": "node/694089988"
    },
    {
      "type": "Feature",
      "properties": {
        "@id": "node/694089998",
        "amenity": "bar",
        "name": "L'étincelle",
        "ref:FR:RATP:DEA_CODE": "530092",
        "source": "data.gouv.fr/RATP-2012-07",
        "wheelchair": "yes"
      },
      "geometry": {
        "type": "Point",
        "coordinates": [
          2.5142817,
          48.7934439
        ]
      },
      "id": "node/694089998"
    },
    {
      "type": "Feature",
      "properties": {
        "@id": "node/694089999",
        "amenity": "bar",
        "name": "Café de Paris",
        "wheelchair": "yes"
      },
      "geometry": {
        "type": "Point",
        "coordinates": [
          2.5142451,
          48.7936453
        ]
      },
      "id": "node/694089999"
    },
    {
      "type": "Feature",
      "properties": {
        "@id": "node/694399350",
        "amenity": "bar",
        "brewery": "Leffe",
        "name": "Lounge Paradise",
        "source": "cadastre-dgi-fr source : Direction Générale des Impôts - Cadastre. Mise à jour : 2010"
      },
      "geometry": {
        "type": "Point",
        "coordinates": [
          2.3483529,
          48.8704075
        ]
      },
      "id": "node/694399350"
    },
    {
      "type": "Feature",
      "properties": {
        "@id": "node/697029196",
        "amenity": "bar",
        "name": "Le Saint-Louis",
        "source": "cadastre-dgi-fr source : Direction Générale des Impôts - Cadastre. Mise à jour : 2010"
      },
      "geometry": {
        "type": "Point",
        "coordinates": [
          2.3568707,
          48.8523357
        ]
      },
      "id": "node/697029196"
    },
    {
      "type": "Feature",
      "properties": {
        "@id": "node/700449087",
        "addr:housenumber": "33",
        "addr:postcode": "75004",
        "addr:street": "Rue de la Verrerie",
        "amenity": "bar",
        "name": "Le perchoir Marais",
        "name:fr": "Le perchoir Marais",
        "opening_hours": "Mo-Sa 20:00-02:00; Su 19:00-02:00",
        "source": "cadastre-dgi-fr source : Direction Générale des Impôts - Cadastre. Mise à jour : 2010",
        "website": "http://leperchoir.fr"
      },
      "geometry": {
        "type": "Point",
        "coordinates": [
          2.3539471,
          48.8575589
        ]
      },
      "id": "node/700449087"
    },
    {
      "type": "Feature",
      "properties": {
        "@id": "node/702751011",
        "addr:housenumber": "37",
        "addr:street": "Rue Vieille du Temple",
        "amenity": "bar",
        "name": "Yono's",
        "opening_hours": "Tu-Su 17:00-1:30",
        "phone": "+33 1 42 74 31 65",
        "source": "cadastre-dgi-fr source : Direction Générale des Impôts - Cadastre. Mise à jour : 2010"
      },
      "geometry": {
        "type": "Point",
        "coordinates": [
          2.3576815,
          48.8577487
        ]
      },
      "id": "node/702751011"
    },
    {
      "type": "Feature",
      "properties": {
        "@id": "node/702916141",
        "addr:housenumber": "4",
        "addr:street": "Rue du Bourg Tibourg",
        "amenity": "bar",
        "name": "Feria Café",
        "phone": "+33 1 42 72 43 99",
        "source": "cadastre-dgi-fr source : Direction Générale des Impôts - Cadastre. Mise à jour : 2010"
      },
      "geometry": {
        "type": "Point",
        "coordinates": [
          2.3558116,
          48.8567788
        ]
      },
      "id": "node/702916141"
    },
    {
      "type": "Feature",
      "properties": {
        "@id": "node/703870781",
        "addr:housenumber": "3",
        "addr:postcode": "75004",
        "addr:street": "Rue des Tournelles",
        "amenity": "bar",
        "cuisine": "french",
        "name": "Bubar",
        "source": "cadastre-dgi-fr source : Direction Générale des Impôts - Cadastre. Mise à jour : 2010"
      },
      "geometry": {
        "type": "Point",
        "coordinates": [
          2.3672909,
          48.8539723
        ]
      },
      "id": "node/703870781"
    },
    {
      "type": "Feature",
      "properties": {
        "@id": "node/704804856",
        "amenity": "bar",
        "description": "Bar-tabac",
        "name": "Le Celtique"
      },
      "geometry": {
        "type": "Point",
        "coordinates": [
          2.169536,
          48.99204
        ]
      },
      "id": "node/704804856"
    },
    {
      "type": "Feature",
      "properties": {
        "@id": "node/704809745",
        "addr:housenumber": "3",
        "addr:street": "Rue de pontoise",
        "amenity": "bar",
        "name": "Au Pigeon Voyageur"
      },
      "geometry": {
        "type": "Point",
        "coordinates": [
          2.167953,
          48.991801
        ]
      },
      "id": "node/704809745"
    },
    {
      "type": "Feature",
      "properties": {
        "@id": "node/704819800",
        "addr:housenumber": "64",
        "amenity": "bar",
        "name": "Bodega 64",
        "phone": "+33 1 48 04 59 11",
        "source": "cadastre-dgi-fr source : Direction Générale des Impôts - Cadastre. Mise à jour : 2010"
      },
      "geometry": {
        "type": "Point",
        "coordinates": [
          2.3580795,
          48.8554369
        ]
      },
      "id": "node/704819800"
    },
    {
      "type": "Feature",
      "properties": {
        "@id": "node/705023599",
        "amenity": "bar",
        "name": "Bar De La Poste"
      },
      "geometry": {
        "type": "Point",
        "coordinates": [
          2.165922,
          48.990271
        ]
      },
      "id": "node/705023599"
    },
    {
      "type": "Feature",
      "properties": {
        "@id": "node/705033819",
        "amenity": "bar",
        "name": "Café Du Commerce"
      },
      "geometry": {
        "type": "Point",
        "coordinates": [
          2.167853,
          48.990987
        ]
      },
      "id": "node/705033819"
    },
    {
      "type": "Feature",
      "properties": {
        "@id": "node/705299975",
        "addr:housenumber": "20",
        "addr:postcode": "75004",
        "addr:street": "Rue Beautreillis",
        "amenity": "bar",
        "name": "sherry Butt",
        "source": "cadastre-dgi-fr source : Direction Générale des Impôts - Cadastre. Mise à jour : 2010"
      },
      "geometry": {
        "type": "Point",
        "coordinates": [
          2.3640898,
          48.853292
        ]
      },
      "id": "node/705299975"
    },
    {
      "type": "Feature",
      "properties": {
        "@id": "node/705657876",
        "addr:city": "Paris",
        "addr:country": "FR",
        "addr:housenumber": "78",
        "addr:street": "Rue Quincampoix",
        "amenity": "bar",
        "name": "L'Art Brut Bistrot",
        "opening_hours": "Mo-Su 16:00-02:00",
        "source": "cadastre-dgi-fr source : Direction Générale des Impôts - Cadastre. Mise à jour : 2010",
        "toilets:wheelchair": "no",
        "website": "http://www.artbrutbistrot.fr",
        "wheelchair": "no"
      },
      "geometry": {
        "type": "Point",
        "coordinates": [
          2.3511124,
          48.8621665
        ]
      },
      "id": "node/705657876"
    },
    {
      "type": "Feature",
      "properties": {
        "@id": "node/706391394",
        "amenity": "bar",
        "name": "O'Kfée"
      },
      "geometry": {
        "type": "Point",
        "coordinates": [
          2.355008,
          48.8643703
        ]
      },
      "id": "node/706391394"
    },
    {
      "type": "Feature",
      "properties": {
        "@id": "node/706432836",
        "addr:housenumber": "67",
        "addr:street": "Rue des Gravilliers",
        "amenity": "bar",
        "name": "La Trinquette",
        "source": "cadastre-dgi-fr source : Direction Générale des Impôts - Cadastre. Mise à jour : 2010"
      },
      "geometry": {
        "type": "Point",
        "coordinates": [
          2.3544256,
          48.8644586
        ]
      },
      "id": "node/706432836"
    },
    {
      "type": "Feature",
      "properties": {
        "@id": "node/708488355",
        "addr:housenumber": "4",
        "addr:street": "Rue de la Harpe",
        "amenity": "bar",
        "name": "Café Bar Les Affiches",
        "opening_hours": "Th-Sa 18:00-24:00",
        "source": "cadastre-dgi-fr source : Direction Générale des Impôts - Cadastre ; mise à jour : 2010"
      },
      "geometry": {
        "type": "Point",
        "coordinates": [
          2.3445259,
          48.8530176
        ]
      },
      "id": "node/708488355"
    },
    {
      "type": "Feature",
      "properties": {
        "@id": "node/708830397",
        "amenity": "bar",
        "name": "Le Portugal",
        "source": "survey"
      },
      "geometry": {
        "type": "Point",
        "coordinates": [
          2.1822294,
          48.8895399
        ]
      },
      "id": "node/708830397"
    },
    {
      "type": "Feature",
      "properties": {
        "@id": "node/715428526",
        "addr:housenumber": "6",
        "addr:street": "Rue Cochin",
        "amenity": "bar",
        "name": "La Frange",
        "opening_hours": "Mo-Su 18:00-02:00",
        "phone": "+33 1 82 09 87 29",
        "source": "cadastre-dgi-fr source : Direction Générale des Impôts - Cadastre. Mise à jour : 2010",
        "website": "https://www.facebook.com/LaFrangebar/"
      },
      "geometry": {
        "type": "Point",
        "coordinates": [
          2.3527292,
          48.8501786
        ]
      },
      "id": "node/715428526"
    },
    {
      "type": "Feature",
      "properties": {
        "@id": "node/725068925",
        "amenity": "bar",
        "name": "Le Tabac des sports"
      },
      "geometry": {
        "type": "Point",
        "coordinates": [
          2.5785237,
          48.7850985
        ]
      },
      "id": "node/725068925"
    },
    {
      "type": "Feature",
      "properties": {
        "@id": "node/726666485",
        "addr:housenumber": "4",
        "addr:street": "Rue des Fossés Saint-Jacques",
        "amenity": "bar",
        "happy_hours": "17:00-21:00",
        "name": "Le Confessionnal",
        "opening_hours": "Mo-Sa 17:00-02:00 ; Su 19:00-02:00",
        "source": "cadastre-dgi-fr source : Direction Générale des Impôts - Cadastre ; mise à jour : 2010"
      },
      "geometry": {
        "type": "Point",
        "coordinates": [
          2.3435349,
          48.845916
        ]
      },
      "id": "node/726666485"
    },
    {
      "type": "Feature",
      "properties": {
        "@id": "node/726884432",
        "amenity": "bar",
        "drink:natural_wine": "yes",
        "drink:wine": "yes",
        "name": "La Buvette"
      },
      "geometry": {
        "type": "Point",
        "coordinates": [
          2.3793124,
          48.8628942
        ]
      },
      "id": "node/726884432"
    },
    {
      "type": "Feature",
      "properties": {
        "@id": "node/729117604",
        "amenity": "bar",
        "name": "Le Sans Souci",
        "source": "cadastre-dgi-fr source : Direction Générale des Impôts - Cadastre. Mise à jour : 2010"
      },
      "geometry": {
        "type": "Point",
        "coordinates": [
          2.3361254,
          48.8813024
        ]
      },
      "id": "node/729117604"
    },
    {
      "type": "Feature",
      "properties": {
        "@id": "node/729575676",
        "amenity": "bar",
        "name": "Le Racine"
      },
      "geometry": {
        "type": "Point",
        "coordinates": [
          0.6870331,
          47.3890564
        ]
      },
      "id": "node/729575676"
    },
    {
      "type": "Feature",
      "properties": {
        "@id": "node/730688640",
        "amenity": "bar"
      },
      "geometry": {
        "type": "Point",
        "coordinates": [
          2.2773422,
          49.1396525
        ]
      },
      "id": "node/730688640"
    },
    {
      "type": "Feature",
      "properties": {
        "@id": "node/730688642",
        "amenity": "bar"
      },
      "geometry": {
        "type": "Point",
        "coordinates": [
          2.2676004,
          49.1514781
        ]
      },
      "id": "node/730688642"
    },
    {
      "type": "Feature",
      "properties": {
        "@id": "node/749696090",
        "addr:city": "Paris",
        "addr:country": "FR",
        "addr:housenumber": "68",
        "addr:postcode": "75019",
        "addr:street": "quai de la Loire",
        "amenity": "bar",
        "name": "Bar Ourcq",
        "note:fr": "Fermé l'hiver",
        "opening_hours": "We-Sa 15:00-22:00; Su 15:00-02:00",
        "phone": "+33142401226",
        "wheelchair": "no"
      },
      "geometry": {
        "type": "Point",
        "coordinates": [
          2.3771696,
          48.8864771
        ]
      },
      "id": "node/749696090"
    },
    {
      "type": "Feature",
      "properties": {
        "@id": "node/768145023",
        "amenity": "bar",
        "name": "Café du Coin"
      },
      "geometry": {
        "type": "Point",
        "coordinates": [
          2.3270056,
          48.7297579
        ]
      },
      "id": "node/768145023"
    },
    {
      "type": "Feature",
      "properties": {
        "@id": "node/770599549",
        "amenity": "bar",
        "name": "Bergerac",
        "tobacco": "yes"
      },
      "geometry": {
        "type": "Point",
        "coordinates": [
          2.4435312,
          48.8638761
        ]
      },
      "id": "node/770599549"
    },
    {
      "type": "Feature",
      "properties": {
        "@id": "node/770728185",
        "amenity": "bar",
        "name": "Café Forum",
        "wheelchair": "no"
      },
      "geometry": {
        "type": "Point",
        "coordinates": [
          2.4420478,
          48.8626362
        ]
      },
      "id": "node/770728185"
    },
    {
      "type": "Feature",
      "properties": {
        "@id": "node/770728196",
        "amenity": "bar",
        "name": "La Pêche"
      },
      "geometry": {
        "type": "Point",
        "coordinates": [
          2.446561,
          48.8633184
        ]
      },
      "id": "node/770728196"
    },
    {
      "type": "Feature",
      "properties": {
        "@id": "node/770728199",
        "amenity": "bar",
        "name": "Tabac des 7 chemins"
      },
      "geometry": {
        "type": "Point",
        "coordinates": [
          2.4467002,
          48.8679353
        ]
      },
      "id": "node/770728199"
    },
    {
      "type": "Feature",
      "properties": {
        "@id": "node/770728202",
        "amenity": "bar",
        "name": "Les Monédières",
        "wheelchair": "no"
      },
      "geometry": {
        "type": "Point",
        "coordinates": [
          2.4415701,
          48.8627118
        ]
      },
      "id": "node/770728202"
    },
    {
      "type": "Feature",
      "properties": {
        "@id": "node/773602071",
        "amenity": "bar",
        "contact:city": "Paris",
        "contact:housenumber": "337",
        "contact:postcode": "75003",
        "contact:street": "Rue Saint-Martin",
        "name": "Les Parisiens",
        "smoking": "outside"
      },
      "geometry": {
        "type": "Point",
        "coordinates": [
          2.354882,
          48.8680162
        ]
      },
      "id": "node/773602071"
    },
    {
      "type": "Feature",
      "properties": {
        "@id": "node/773628234",
        "amenity": "bar"
      },
      "geometry": {
        "type": "Point",
        "coordinates": [
          2.3275466,
          48.7313392
        ]
      },
      "id": "node/773628234"
    },
    {
      "type": "Feature",
      "properties": {
        "@id": "node/774899540",
        "amenity": "bar",
        "name": "Le Relax"
      },
      "geometry": {
        "type": "Point",
        "coordinates": [
          2.4279661,
          48.8024236
        ]
      },
      "id": "node/774899540"
    },
    {
      "type": "Feature",
      "properties": {
        "@id": "node/775732044",
        "amenity": "bar",
        "name": "Café de la Paix",
        "source": "cadastre-dgi-fr source : Direction Générale des Impôts - Cadastre. Mise à jour : 2010"
      },
      "geometry": {
        "type": "Point",
        "coordinates": [
          2.4190239,
          48.805278
        ]
      },
      "id": "node/775732044"
    },
    {
      "type": "Feature",
      "properties": {
        "@id": "node/775732056",
        "amenity": "bar",
        "name": "Café le square",
        "source": "cadastre-dgi-fr source : Direction Générale des Impôts - Cadastre. Mise à jour : 2010"
      },
      "geometry": {
        "type": "Point",
        "coordinates": [
          2.4201481,
          48.8049122
        ]
      },
      "id": "node/775732056"
    },
    {
      "type": "Feature",
      "properties": {
        "@id": "node/775732058",
        "amenity": "bar",
        "name": "Brasserie de l'Hôtel de Ville",
        "source": "cadastre-dgi-fr source : Direction Générale des Impôts - Cadastre. Mise à jour : 2010"
      },
      "geometry": {
        "type": "Point",
        "coordinates": [
          2.4196971,
          48.8055803
        ]
      },
      "id": "node/775732058"
    },
    {
      "type": "Feature",
      "properties": {
        "@id": "node/776938194",
        "amenity": "bar",
        "name": "Le Tennessee"
      },
      "geometry": {
        "type": "Point",
        "coordinates": [
          2.3390379,
          48.8537741
        ]
      },
      "id": "node/776938194"
    },
    {
      "type": "Feature",
      "properties": {
        "@id": "node/778220091",
        "amenity": "bar",
        "name": "La Rhumerie"
      },
      "geometry": {
        "type": "Point",
        "coordinates": [
          2.3355231,
          48.853395
        ]
      },
      "id": "node/778220091"
    },
    {
      "type": "Feature",
      "properties": {
        "@id": "node/780706234",
        "amenity": "bar",
        "name": "La Bonne Halte",
        "shop": "tobacco",
        "tobacco": "yes"
      },
      "geometry": {
        "type": "Point",
        "coordinates": [
          3.5311354,
          47.8766259
        ]
      },
      "id": "node/780706234"
    },
    {
      "type": "Feature",
      "properties": {
        "@id": "node/787338346",
        "amenity": "bar",
        "name": "La grosse bouteille"
      },
      "geometry": {
        "type": "Point",
        "coordinates": [
          2.3728143,
          48.8602777
        ]
      },
      "id": "node/787338346"
    },
    {
      "type": "Feature",
      "properties": {
        "@id": "node/794784926",
        "amenity": "bar"
      },
      "geometry": {
        "type": "Point",
        "coordinates": [
          2.1119766,
          49.0180104
        ]
      },
      "id": "node/794784926"
    },
    {
      "type": "Feature",
      "properties": {
        "@id": "node/795606539",
        "addr:housenumber": "41",
        "addr:postcode": "75010",
        "addr:street": "Rue du Faubourg Saint-Martin",
        "amenity": "bar",
        "barrier": "cycle_barrier",
        "bicycle": "yes",
        "foot": "yes",
        "name": "0/Gustave",
        "name:fr": "0/Gustave",
        "opening_hours": "Tu-sa 11:00-22:00; Su 11:00-18:00",
        "phone": "+33 6 46 73 91 44",
        "source": "cadastre-dgi-fr source : Direction Générale des Impôts - Cadastre. Mise à jour : 2010"
      },
      "geometry": {
        "type": "Point",
        "coordinates": [
          2.3564267,
          48.8707195
        ]
      },
      "id": "node/795606539"
    },
    {
      "type": "Feature",
      "properties": {
        "@id": "node/795739247",
        "amenity": "bar",
        "name": "Bar du Stade"
      },
      "geometry": {
        "type": "Point",
        "coordinates": [
          1.0967235,
          49.4065926
        ]
      },
      "id": "node/795739247"
    },
    {
      "type": "Feature",
      "properties": {
        "@id": "node/799679780",
        "amenity": "bar",
        "name": "Hola!"
      },
      "geometry": {
        "type": "Point",
        "coordinates": [
          0.198659,
          48.003704
        ]
      },
      "id": "node/799679780"
    },
    {
      "type": "Feature",
      "properties": {
        "@id": "node/802712707",
        "amenity": "bar",
        "food": "yes",
        "name": "Le Commerce",
        "opening_hours": "Mo-Su 11:00-20:00"
      },
      "geometry": {
        "type": "Point",
        "coordinates": [
          2.1331029,
          48.7020983
        ]
      },
      "id": "node/802712707"
    },
    {
      "type": "Feature",
      "properties": {
        "@id": "node/806010995",
        "addr:housenumber": "13",
        "addr:postcode": "75006",
        "addr:street": "Rue Princesse",
        "amenity": "bar",
        "name": "Tiger",
        "name:fr": "Tiger",
        "opening_hours": "Mo-Sa 18:00-02:00",
        "source": "cadastre-dgi-fr source : Direction Générale des Impôts - Cadastre. Mise à jour : 2010"
      },
      "geometry": {
        "type": "Point",
        "coordinates": [
          2.3345667,
          48.8521181
        ]
      },
      "id": "node/806010995"
    },
    {
      "type": "Feature",
      "properties": {
        "@id": "node/806100716",
        "addr:housenumber": "3",
        "addr:street": "Rue Monsieur le Prince",
        "amenity": "bar",
        "name": "La Robe & La Mousse",
        "name:fr": "La Robe & La Mousse",
        "opening_hours": "Mo-Su 16:00-16:00",
        "source": "cadastre-dgi-fr source : Direction Générale des Impôts - Cadastre. Mise à jour : 2010",
        "wheelchair": "limited"
      },
      "geometry": {
        "type": "Point",
        "coordinates": [
          2.3390451,
          48.8516446
        ]
      },
      "id": "node/806100716"
    },
    {
      "type": "Feature",
      "properties": {
        "@id": "node/806114404",
        "addr:housenumber": "3",
        "addr:postcode": "75006",
        "addr:street": "Rue de l'Ancienne Comédie",
        "amenity": "bar",
        "entrance": "yes",
        "name": "Bar III",
        "website": "http://www.bar3stgermain.com/",
        "wifi": "yes"
      },
      "geometry": {
        "type": "Point",
        "coordinates": [
          2.338545,
          48.8534529
        ]
      },
      "id": "node/806114404"
    },
    {
      "type": "Feature",
      "properties": {
        "@id": "node/807613584",
        "addr:housenumber": "7",
        "amenity": "bar",
        "name": "Don Quichotte",
        "wheelchair": "yes"
      },
      "geometry": {
        "type": "Point",
        "coordinates": [
          3.5688178,
          47.7947138
        ]
      },
      "id": "node/807613584"
    },
    {
      "type": "Feature",
      "properties": {
        "@id": "node/811132289",
        "amenity": "bar",
        "name": "Le Mulligan's"
      },
      "geometry": {
        "type": "Point",
        "coordinates": [
          0.1966398,
          48.0017304
        ]
      },
      "id": "node/811132289"
    },
    {
      "type": "Feature",
      "properties": {
        "@id": "node/811175174",
        "amenity": "bar",
        "name": "Le passeport"
      },
      "geometry": {
        "type": "Point",
        "coordinates": [
          0.1944994,
          48.0019676
        ]
      },
      "id": "node/811175174"
    },
    {
      "type": "Feature",
      "properties": {
        "@id": "node/811326704",
        "amenity": "bar",
        "name": "El Tonel"
      },
      "geometry": {
        "type": "Point",
        "coordinates": [
          2.3323292,
          48.8643001
        ]
      },
      "id": "node/811326704"
    },
    {
      "type": "Feature",
      "properties": {
        "@id": "node/812129610",
        "amenity": "bar",
        "name": "Le Comptoir du Faubourg",
        "source": "cadastre-dgi-fr source : Direction Générale des Impôts - Cadastre. Mise à jour : 2010"
      },
      "geometry": {
        "type": "Point",
        "coordinates": [
          2.3211802,
          48.8706806
        ]
      },
      "id": "node/812129610"
    },
    {
      "type": "Feature",
      "properties": {
        "@id": "node/813394579",
        "amenity": "bar",
        "name": "Elysée Lounge",
        "source": "cadastre-dgi-fr source : Direction Générale des Impôts - Cadastre. Mise à jour : 2010"
      },
      "geometry": {
        "type": "Point",
        "coordinates": [
          2.316952,
          48.871252
        ]
      },
      "id": "node/813394579"
    },
    {
      "type": "Feature",
      "properties": {
        "@id": "node/814949851",
        "amenity": "bar",
        "name": "La Guinguette",
        "source": "cadastre-dgi-fr source : Direction Générale des Impôts - Cadastre. Mise à jour : 2010"
      },
      "geometry": {
        "type": "Point",
        "coordinates": [
          0.9561566,
          47.8029084
        ]
      },
      "id": "node/814949851"
    },
    {
      "type": "Feature",
      "properties": {
        "@id": "node/815663778",
        "amenity": "bar",
        "name": "Les Floralies"
      },
      "geometry": {
        "type": "Point",
        "coordinates": [
          1.0937025,
          49.443445
        ]
      },
      "id": "node/815663778"
    },
    {
      "type": "Feature",
      "properties": {
        "@id": "node/815717676",
        "amenity": "bar",
        "name": "La Pergola",
        "source": "cadastre-dgi-fr source : Direction Générale des Impôts - Cadastre. Mise à jour : 2010"
      },
      "geometry": {
        "type": "Point",
        "coordinates": [
          1.5683326,
          50.3401333
        ]
      },
      "id": "node/815717676"
    },
    {
      "type": "Feature",
      "properties": {
        "@id": "node/816332956",
        "amenity": "bar",
        "name": "La Renaissance"
      },
      "geometry": {
        "type": "Point",
        "coordinates": [
          4.7042072,
          50.4826276
        ]
      },
      "id": "node/816332956"
    },
    {
      "type": "Feature",
      "properties": {
        "@id": "node/816334473",
        "amenity": "bar",
        "name": "Le Régent"
      },
      "geometry": {
        "type": "Point",
        "coordinates": [
          4.7019718,
          50.4799362
        ]
      },
      "id": "node/816334473"
    },
    {
      "type": "Feature",
      "properties": {
        "@id": "node/816334478",
        "amenity": "bar",
        "name": "La Salle du Cercle"
      },
      "geometry": {
        "type": "Point",
        "coordinates": [
          4.7038257,
          50.4823023
        ]
      },
      "id": "node/816334478"
    },
    {
      "type": "Feature",
      "properties": {
        "@id": "node/817329642",
        "addr:city": "Le Mans",
        "addr:housenumber": "8",
        "addr:postcode": "72000",
        "addr:street": "Rue Victor Bonhommet",
        "amenity": "bar",
        "name": "Le Barouf",
        "phone": "+33 2 43 24 19 01",
        "smoking": "outside",
        "website": "http://lebarouf.blogspot.fr/"
      },
      "geometry": {
        "type": "Point",
        "coordinates": [
          0.1965375,
          48.0050459
        ]
      },
      "id": "node/817329642"
    },
    {
      "type": "Feature",
      "properties": {
        "@id": "node/817339707",
        "addr:housenumber": "7",
        "amenity": "bar",
        "name": "L'atelier",
        "source": "cadastre-dgi-fr source : Direction Générale des Impôts - Cadastre. Mise à jour : 2013"
      },
      "geometry": {
        "type": "Point",
        "coordinates": [
          0.1951378,
          48.005218
        ]
      },
      "id": "node/817339707"
    },
    {
      "type": "Feature",
      "properties": {
        "@id": "node/817340145",
        "addr:housenumber": "11",
        "amenity": "bar",
        "name": "Le café Berlin",
        "source": "cadastre-dgi-fr source : Direction Générale des Impôts - Cadastre. Mise à jour : 2013"
      },
      "geometry": {
        "type": "Point",
        "coordinates": [
          0.1948911,
          48.0052394
        ]
      },
      "id": "node/817340145"
    },
    {
      "type": "Feature",
      "properties": {
        "@id": "node/817556528",
        "amenity": "bar",
        "name": "Sun 7",
        "source": "survey"
      },
      "geometry": {
        "type": "Point",
        "coordinates": [
          0.2005943,
          48.004299
        ]
      },
      "id": "node/817556528"
    },
    {
      "type": "Feature",
      "properties": {
        "@id": "node/817974703",
        "addr:housenumber": "1",
        "addr:postcode": "75018",
        "addr:street": "Rue Ramey",
        "amenity": "bar",
        "name": "Au clair de lune"
      },
      "geometry": {
        "type": "Point",
        "coordinates": [
          2.347503,
          48.8869689
        ]
      },
      "id": "node/817974703"
    },
    {
      "type": "Feature",
      "properties": {
        "@id": "node/819031352",
        "amenity": "bar",
        "name": "Le Seven",
        "source": "cadastre-dgi-fr source : Direction Générale des Impôts - Cadastre. Mise à jour : 2010"
      },
      "geometry": {
        "type": "Point",
        "coordinates": [
          2.3235567,
          48.8803557
        ]
      },
      "id": "node/819031352"
    },
    {
      "type": "Feature",
      "properties": {
        "@id": "node/819176199",
        "amenity": "bar",
        "name": "Black Tie",
        "source": "cadastre-dgi-fr source : Direction Générale des Impôts - Cadastre. Mise à jour : 2010"
      },
      "geometry": {
        "type": "Point",
        "coordinates": [
          2.3270121,
          48.8766444
        ]
      },
      "id": "node/819176199"
    },
    {
      "type": "Feature",
      "properties": {
        "@id": "node/821696406",
        "amenity": "bar",
        "name": "Le Chiquito",
        "shop": "kiosk",
        "source": "photo survey",
        "tobacco": "yes"
      },
      "geometry": {
        "type": "Point",
        "coordinates": [
          3.7914857,
          48.0420745
        ]
      },
      "id": "node/821696406"
    },
    {
      "type": "Feature",
      "properties": {
        "@id": "node/822951734",
        "amenity": "bar",
        "name": "Le Treilhard Bar",
        "source": "cadastre-dgi-fr source : Direction Générale des Impôts - Cadastre. Mise à jour : 2010"
      },
      "geometry": {
        "type": "Point",
        "coordinates": [
          2.314835,
          48.8769627
        ]
      },
      "id": "node/822951734"
    },
    {
      "type": "Feature",
      "properties": {
        "@id": "node/828185423",
        "amenity": "bar"
      },
      "geometry": {
        "type": "Point",
        "coordinates": [
          2.0967312,
          48.9982104
        ]
      },
      "id": "node/828185423"
    },
    {
      "type": "Feature",
      "properties": {
        "@id": "node/828825713",
        "amenity": "bar",
        "name": "Le Crocodile Vert"
      },
      "geometry": {
        "type": "Point",
        "coordinates": [
          2.2893109,
          48.835468
        ]
      },
      "id": "node/828825713"
    },
    {
      "type": "Feature",
      "properties": {
        "@id": "node/829203592",
        "addr:city": "Paris",
        "addr:housenumber": "64",
        "addr:postcode": "75008",
        "addr:street": "Rue François 1er",
        "amenity": "bar",
        "name": "L'Écluse",
        "source": "cadastre-dgi-fr source : Direction Générale des Impôts - Cadastre. Mise à jour : 2010"
      },
      "geometry": {
        "type": "Point",
        "coordinates": [
          2.3016632,
          48.8700655
        ]
      },
      "id": "node/829203592"
    },
    {
      "type": "Feature",
      "properties": {
        "@id": "node/836354699",
        "amenity": "bar",
        "name": "Aux Ours"
      },
      "geometry": {
        "type": "Point",
        "coordinates": [
          2.3965533,
          48.8675571
        ]
      },
      "id": "node/836354699"
    },
    {
      "type": "Feature",
      "properties": {
        "@id": "node/836844378",
        "amenity": "bar"
      },
      "geometry": {
        "type": "Point",
        "coordinates": [
          1.0791862,
          49.4452027
        ]
      },
      "id": "node/836844378"
    },
    {
      "type": "Feature",
      "properties": {
        "@id": "node/837769005",
        "addr:housenumber": "93",
        "addr:postcode": "75020",
        "addr:street": "Rue d'Avron",
        "amenity": "bar",
        "name": "Le Narval"
      },
      "geometry": {
        "type": "Point",
        "coordinates": [
          2.4056082,
          48.8526933
        ]
      },
      "id": "node/837769005"
    },
    {
      "type": "Feature",
      "properties": {
        "@id": "node/838704107",
        "amenity": "bar"
      },
      "geometry": {
        "type": "Point",
        "coordinates": [
          1.9101354,
          48.993428
        ]
      },
      "id": "node/838704107"
    },
    {
      "type": "Feature",
      "properties": {
        "@id": "node/838704234",
        "amenity": "bar"
      },
      "geometry": {
        "type": "Point",
        "coordinates": [
          1.9131288,
          48.9938011
        ]
      },
      "id": "node/838704234"
    },
    {
      "type": "Feature",
      "properties": {
        "@id": "node/839922619",
        "addr:housenumber": "5",
        "addr:street": "Rue de Berri",
        "amenity": "bar",
        "name": "Titty Twister",
        "source": "cadastre-dgi-fr source : Direction Générale des Impôts - Cadastre. Mise à jour : 2010"
      },
      "geometry": {
        "type": "Point",
        "coordinates": [
          2.3031735,
          48.8720198
        ]
      },
      "id": "node/839922619"
    },
    {
      "type": "Feature",
      "properties": {
        "@id": "node/842330788",
        "access": "private",
        "amenity": "bar",
        "name": "La nébuleuse",
        "note": "Bar des élèves, réservé aux étudiants"
      },
      "geometry": {
        "type": "Point",
        "coordinates": [
          2.2902097,
          48.7630284
        ]
      },
      "id": "node/842330788"
    },
    {
      "type": "Feature",
      "properties": {
        "@id": "node/857552673",
        "amenity": "bar",
        "name": "Le Val d'Yerres",
        "wheelchair": "yes"
      },
      "geometry": {
        "type": "Point",
        "coordinates": [
          2.4908502,
          48.715917
        ]
      },
      "id": "node/857552673"
    },
    {
      "type": "Feature",
      "properties": {
        "@id": "node/859338235",
        "amenity": "bar",
        "name": "Le Stop Bar",
        "source": "cadastre-dgi-fr source : Direction Générale des Impôts - Cadastre. Mise à jour : 2010"
      },
      "geometry": {
        "type": "Point",
        "coordinates": [
          -0.1999098,
          48.8979823
        ]
      },
      "id": "node/859338235"
    },
    {
      "type": "Feature",
      "properties": {
        "@id": "node/859338284",
        "amenity": "bar",
        "name": "Le Grenier",
        "source": "cadastre-dgi-fr source : Direction Générale des Impôts - Cadastre. Mise à jour : 2010"
      },
      "geometry": {
        "type": "Point",
        "coordinates": [
          -0.1899218,
          48.8928404
        ]
      },
      "id": "node/859338284"
    },
    {
      "type": "Feature",
      "properties": {
        "@id": "node/859338287",
        "amenity": "bar",
        "name": "Le Brazza",
        "source": "cadastre-dgi-fr source : Direction Générale des Impôts - Cadastre. Mise à jour : 2010"
      },
      "geometry": {
        "type": "Point",
        "coordinates": [
          -0.1890269,
          48.8938569
        ]
      },
      "id": "node/859338287"
    },
    {
      "type": "Feature",
      "properties": {
        "@id": "node/859338299",
        "alt_name": "Chez Maryse et Danny",
        "amenity": "bar",
        "name": "New Maryse Bar",
        "source": "Voisin. Mise à jour : 2012"
      },
      "geometry": {
        "type": "Point",
        "coordinates": [
          -0.1870554,
          48.8927327
        ]
      },
      "id": "node/859338299"
    },
    {
      "type": "Feature",
      "properties": {
        "@id": "node/859338317",
        "amenity": "bar",
        "name": "Bar du centre"
      },
      "geometry": {
        "type": "Point",
        "coordinates": [
          -0.1995301,
          48.8966011
        ]
      },
      "id": "node/859338317"
    },