{
  "type": "FeatureCollection",
  "generator": "overpass-ide",
  "copyright": "The data included in this document is from www.openstreetmap.org. The data is made available under ODbL.",
  "timestamp": "2018-07-09T12:56:02Z",
  "features": [
    {
      "type": "Feature",
      "properties": {
        "@id": "node/163768494",
        "email": "itineraires@hotmail.fr",
        "fax": "+33147218121",
        "internet_access": "wlan",
        "internet_access:fee": "no",
        "name": "Hôtel Itinéraires",
        "phone": "+33147259134;+33147218421",
        "rooms": "137",
        "smoking": "no",
        "source": "survey",
        "stars": "3",
        "tourism": "hotel",
        "wheelchair": "yes"
      },
      "geometry": {
        "type": "Point",
        "coordinates": [
          2.2194691,
          48.8961485
        ]
      },
      "id": "node/163768494"
    },
    {
      "type": "Feature",
      "properties": {
        "@id": "node/178161873",
        "created_by": "JOSM",
        "name": "L'arche",
        "tourism": "hotel"
      },
      "geometry": {
        "type": "Point",
        "coordinates": [
          2.2321069,
          48.9008191
        ]
      },
      "id": "node/178161873"
    },
    {
      "type": "Feature",
      "properties": {
        "@id": "node/181290564",
        "air_conditioning": "yes",
        "email": "H1982@accor.com",
        "fax": "+33147254624",
        "fitness": "yes",
        "internet_access": "wlan",
        "name": "Mercure",
        "official_name": "Mercure 'La Défense Parc Nanterre'",
        "operator": "Accor Hotels",
        "phone": "0825805959",
        "rooms": "160",
        "source": "survey;knowledge",
        "stars": "4",
        "television": "yes",
        "toilets:wheelchair": "no",
        "tourism": "hotel",
        "website": "http://www.accorhotels.com/fr/hotel-1982-hotel-mercure-paris-la-defense-grande-arche/index.shtml",
        "wheelchair": "yes"
      },
      "geometry": {
        "type": "Point",
        "coordinates": [
          2.223544,
          48.8952476
        ]
      },
      "id": "node/181290564"
    },
    {
      "type": "Feature",
      "properties": {
        "@id": "node/202446889",
        "amenity": "restaurant",
        "created_by": "JOSM",
        "name": "Pavillon de l'aéro",
        "phone": "+33 1 30 45 00 04",
        "tourism": "hotel"
      },
      "geometry": {
        "type": "Point",
        "coordinates": [
          2.0745093,
          48.805393
        ]
      },
      "id": "node/202446889"
    },
    {
      "type": "Feature",
      "properties": {
        "@id": "node/202446894",
        "created_by": "JOSM",
        "name": "Aérotel",
        "phone": "+33 1 30 45 07 44",
        "tourism": "hotel"
      },
      "geometry": {
        "type": "Point",
        "coordinates": [
          2.0749407,
          48.8052768
        ]
      },
      "id": "node/202446894"
    },
    {
      "type": "Feature",
      "properties": {
        "@id": "node/224711659",
        "name": "Ibis",
        "tourism": "hotel"
      },
      "geometry": {
        "type": "Point",
        "coordinates": [
          2.3155776,
          48.8403064
        ]
      },
      "id": "node/224711659"
    },
    {
      "type": "Feature",
      "properties": {
        "@id": "node/244129272",
        "name": "Auberge Champenoise",
        "tourism": "hotel"
      },
      "geometry": {
        "type": "Point",
        "coordinates": [
          3.9225005,
          49.0129425
        ]
      },
      "id": "node/244129272"
    },
    {
      "type": "Feature",
      "properties": {
        "@id": "node/247435001",
        "name": "BVJ Paris-Louvre",
        "tourism": "hotel"
      },
      "geometry": {
        "type": "Point",
        "coordinates": [
          2.3411196,
          48.8626324
        ]
      },
      "id": "node/247435001"
    },
    {
      "type": "Feature",
      "properties": {
        "@id": "node/247435003",
        "name": "Hôtel Crayon Rouge",
        "tourism": "hotel"
      },
      "geometry": {
        "type": "Point",
        "coordinates": [
          2.3405105,
          48.8645288
        ]
      },
      "id": "node/247435003"
    },
    {
      "type": "Feature",
      "properties": {
        "@id": "node/247435032",
        "addr:city": "Paris",
        "addr:housenumber": "85",
        "addr:street": "Rue Saint-Honoré",
        "name": "Hôtel Saint-Honoré",
        "tourism": "hotel"
      },
      "geometry": {
        "type": "Point",
        "coordinates": [
          2.3436118,
          48.8611819
        ]
      },
      "id": "node/247435032"
    },
    {
      "type": "Feature",
      "properties": {
        "@id": "node/247435275",
        "name": "Hôtel Montpensier",
        "stars": "2",
        "tourism": "hotel",
        "wheelchair": "no"
      },
      "geometry": {
        "type": "Point",
        "coordinates": [
          2.3363084,
          48.8643625
        ]
      },
      "id": "node/247435275"
    },
    {
      "type": "Feature",
      "properties": {
        "@id": "node/247436637",
        "name": "Hôtel Louvre Bon Enfants",
        "stars": "3",
        "tourism": "hotel"
      },
      "geometry": {
        "type": "Point",
        "coordinates": [
          2.3381793,
          48.8629098
        ]
      },
      "id": "node/247436637"
    },
    {
      "type": "Feature",
      "properties": {
        "@id": "node/247436814",
        "name": "Hôtel Vendôme",
        "tourism": "hotel",
        "wikidata": "Q3145996"
      },
      "geometry": {
        "type": "Point",
        "coordinates": [
          2.328706,
          48.8670031
        ]
      },
      "id": "node/247436814"
    },
    {
      "type": "Feature",
      "properties": {
        "@id": "node/247437972",
        "name": "Hôtel Costes",
        "tourism": "hotel",
        "wikidata": "Q904945"
      },
      "geometry": {
        "type": "Point",
        "coordinates": [
          2.3280003,
          48.8666933
        ]
      },
      "id": "node/247437972"
    },
    {
      "type": "Feature",
      "properties": {
        "@id": "node/247609768",
        "name": "Hôtel Vivienne",
        "tourism": "hotel",
        "wheelchair": "yes"
      },
      "geometry": {
        "type": "Point",
        "coordinates": [
          2.3415044,
          48.8711661
        ]
      },
      "id": "node/247609768"
    },
    {
      "type": "Feature",
      "properties": {
        "@id": "node/249482877",
        "name": "Mercure hotel",
        "tourism": "hotel"
      },
      "geometry": {
        "type": "Point",
        "coordinates": [
          1.8957748,
          47.898529
        ]
      },
      "id": "node/249482877"
    },
    {
      "type": "Feature",
      "properties": {
        "@id": "node/251001754",
        "name": "Hôtel des Boulevards",
        "tourism": "hotel"
      },
      "geometry": {
        "type": "Point",
        "coordinates": [
          2.3486973,
          48.8696872
        ]
      },
      "id": "node/251001754"
    },
    {
      "type": "Feature",
      "properties": {
        "@id": "node/251001755",
        "name": "Hôtel Sainte-Marie",
        "tourism": "hotel",
        "wheelchair": "no"
      },
      "geometry": {
        "type": "Point",
        "coordinates": [
          2.348676,
          48.8695728
        ]
      },
      "id": "node/251001755"
    },
    {
      "type": "Feature",
      "properties": {
        "@id": "node/251127407",
        "name": "Hôtel Paris Rivoli",
        "stars": "3",
        "tourism": "hotel"
      },
      "geometry": {
        "type": "Point",
        "coordinates": [
          2.3573425,
          48.8559607
        ]
      },
      "id": "node/251127407"
    },
    {
      "type": "Feature",
      "properties": {
        "@id": "node/251127867",
        "name": "Hôtel du Loiret",
        "tourism": "hotel"
      },
      "geometry": {
        "type": "Point",
        "coordinates": [
          2.3552931,
          48.8569202
        ]
      },
      "id": "node/251127867"
    },
    {
      "type": "Feature",
      "properties": {
        "@id": "node/251127869",
        "name": "Hôtel du Septième Art",
        "tourism": "hotel"
      },
      "geometry": {
        "type": "Point",
        "coordinates": [
          2.3618939,
          48.8534997
        ]
      },
      "id": "node/251127869"
    },
    {
      "type": "Feature",
      "properties": {
        "@id": "node/251128405",
        "internet_access": "wlan",
        "name": "Hôtel Caron de Beaumarchais",
        "tourism": "hotel",
        "website": "http://www.carondebeaumarchais.com/",
        "wheelchair": "no"
      },
      "geometry": {
        "type": "Point",
        "coordinates": [
          2.3568646,
          48.8564448
        ]
      },
      "id": "node/251128405"
    },
    {
      "type": "Feature",
      "properties": {
        "@id": "node/251130023",
        "name": "Jardins de Paris Marais-Bastille",
        "tourism": "hotel"
      },
      "geometry": {
        "type": "Point",
        "coordinates": [
          2.363168,
          48.8539504
        ]
      },
      "id": "node/251130023"
    },
    {
      "type": "Feature",
      "properties": {
        "@id": "node/251130907",
        "name": "Hôtel de la Place des Vosges",
        "tourism": "hotel"
      },
      "geometry": {
        "type": "Point",
        "coordinates": [
          2.3652418,
          48.8544261
        ]
      },
      "id": "node/251130907"
    },
    {
      "type": "Feature",
      "properties": {
        "@id": "node/251131789",
        "name": "Hôtel de Nice",
        "tourism": "hotel"
      },
      "geometry": {
        "type": "Point",
        "coordinates": [
          2.3557614,
          48.8566251
        ]
      },
      "id": "node/251131789"
    },
    {
      "type": "Feature",
      "properties": {
        "@id": "node/251531802",
        "name": "Hôtel du Commerce",
        "tourism": "hotel"
      },
      "geometry": {
        "type": "Point",
        "coordinates": [
          2.3483264,
          48.8487987
        ]
      },
      "id": "node/251531802"
    },
    {
      "type": "Feature",
      "properties": {
        "@id": "node/251531803",
        "name": "Hôtel Esmerelda",
        "tourism": "hotel"
      },
      "geometry": {
        "type": "Point",
        "coordinates": [
          2.347203,
          48.8524744
        ]
      },
      "id": "node/251531803"
    },
    {
      "type": "Feature",
      "properties": {
        "@id": "node/251531804",
        "busway": "track",
        "cycleway": "share_busway",
        "name": "Port-Royal-Hôtel",
        "tourism": "hotel"
      },
      "geometry": {
        "type": "Point",
        "coordinates": [
          2.3513817,
          48.8369895
        ]
      },
      "id": "node/251531804"
    },
    {
      "type": "Feature",
      "properties": {
        "@id": "node/251652817",
        "addr:city": "Paris",
        "addr:housenumber": "18",
        "addr:postcode": "75005",
        "addr:street": "Rue de la Harpe",
        "email": "info@hoteldulevant.com",
        "internet_access": "wlan",
        "internet_access:fee": "no",
        "name": "Hôtel du Levant",
        "phone": "+33 1 46 34 11 00",
        "stars": "3",
        "tourism": "hotel",
        "website": "http://www.hoteldulevant.com"
      },
      "geometry": {
        "type": "Point",
        "coordinates": [
          2.3444884,
          48.8528444
        ]
      },
      "id": "node/251652817"
    },
    {
      "type": "Feature",
      "properties": {
        "@id": "node/251652818",
        "name": "Maitre Albert B&B",
        "tourism": "hotel"
      },
      "geometry": {
        "type": "Point",
        "coordinates": [
          2.3495969,
          48.850704
        ]
      },
      "id": "node/251652818"
    },
    {
      "type": "Feature",
      "properties": {
        "@id": "node/251733867",
        "name": "Le Clos Medicis",
        "stars": "3",
        "tourism": "hotel"
      },
      "geometry": {
        "type": "Point",
        "coordinates": [
          2.3405763,
          48.8482841
        ]
      },
      "id": "node/251733867"
    },
    {
      "type": "Feature",
      "properties": {
        "@id": "node/251733871",
        "name": "L'Hôtel",
        "note": "c'est bien son nom",
        "note:en": "this is the real name",
        "tourism": "hotel",
        "wikidata": "Q23283"
      },
      "geometry": {
        "type": "Point",
        "coordinates": [
          2.3352294,
          48.856323
        ]
      },
      "id": "node/251733871"
    },
    {
      "type": "Feature",
      "properties": {
        "@id": "node/251733872",
        "contact:website": "http://www.victoriapalace.com/mobile/",
        "name": "Victoria Palace Hotel",
        "stars": "5",
        "toilets:wheelchair": "yes",
        "tourism": "hotel",
        "wheelchair": "yes"
      },
      "geometry": {
        "type": "Point",
        "coordinates": [
          2.3243407,
          48.8457742
        ]
      },
      "id": "node/251733872"
    },
    {
      "type": "Feature",
      "properties": {
        "@id": "node/251758241",
        "contact:website": "http://www.lepetitchomel.com/",
        "name": "Le Petit Chomel",
        "stars": "3",
        "tourism": "hotel"
      },
      "geometry": {
        "type": "Point",
        "coordinates": [
          2.3253667,
          48.8519344
        ]
      },
      "id": "node/251758241"
    },
    {
      "type": "Feature",
      "properties": {
        "@id": "node/251758242",
        "name": "Hôtel Lindbergh",
        "tourism": "hotel"
      },
      "geometry": {
        "type": "Point",
        "coordinates": [
          2.326091,
          48.8521505
        ]
      },
      "id": "node/251758242"
    },
    {
      "type": "Feature",
      "properties": {
        "@id": "node/251758243",
        "name": "Hôtel du Champ de Mars",
        "tourism": "hotel"
      },
      "geometry": {
        "type": "Point",
        "coordinates": [
          2.3060759,
          48.856397
        ]
      },
      "id": "node/251758243"
    },
    {
      "type": "Feature",
      "properties": {
        "@id": "node/251758244",
        "name": "Hôtel Saint-Dominique",
        "tourism": "hotel"
      },
      "geometry": {
        "type": "Point",
        "coordinates": [
          2.308788,
          48.8599286
        ]
      },
      "id": "node/251758244"
    },
    {
      "type": "Feature",
      "properties": {
        "@id": "node/251758245",
        "name": "Hôtel Duquesne Eiffel",
        "tourism": "hotel"
      },
      "geometry": {
        "type": "Point",
        "coordinates": [
          2.3090461,
          48.8526441
        ]
      },
      "id": "node/251758245"
    },
    {
      "type": "Feature",
      "properties": {
        "@id": "node/251758246",
        "name": "Hôtel de la Tulipe",
        "tourism": "hotel"
      },
      "geometry": {
        "type": "Point",
        "coordinates": [
          2.3062819,
          48.8599838
        ]
      },
      "id": "node/251758246"
    },
    {
      "type": "Feature",
      "properties": {
        "@id": "node/251758247",
        "name": "Grand Hôtel Leveque",
        "tourism": "hotel"
      },
      "geometry": {
        "type": "Point",
        "coordinates": [
          2.3065436,
          48.8571597
        ]
      },
      "id": "node/251758247"
    },
    {
      "type": "Feature",
      "properties": {
        "@id": "node/251758248",
        "name": "Timhôtel Best Western Tour Eiffel Invalides",
        "tourism": "hotel"
      },
      "geometry": {
        "type": "Point",
        "coordinates": [
          2.3104739,
          48.8604075
        ]
      },
      "id": "node/251758248"
    },
    {
      "type": "Feature",
      "properties": {
        "@id": "node/251758255",
        "name": "Four Seasons Hôtel George V",
        "tourism": "hotel",
        "wikidata": "Q217708"
      },
      "geometry": {
        "type": "Point",
        "coordinates": [
          2.3006774,
          48.868784
        ]
      },
      "id": "node/251758255"
    },
    {
      "type": "Feature",
      "properties": {
        "@id": "node/251758256",
        "name": "Hyatt Regency Paris - Madeleine",
        "tourism": "hotel"
      },
      "geometry": {
        "type": "Point",
        "coordinates": [
          2.3216323,
          48.8729139
        ]
      },
      "id": "node/251758256"
    },
    {
      "type": "Feature",
      "properties": {
        "@id": "node/251851365",
        "name": "Hôtel de Lille",
        "tourism": "hotel"
      },
      "geometry": {
        "type": "Point",
        "coordinates": [
          2.3485948,
          48.876717
        ]
      },
      "id": "node/251851365"
    },
    {
      "type": "Feature",
      "properties": {
        "@id": "node/251851366",
        "addr:housenumber": "39",
        "addr:street": "Rue Rodier",
        "name": "Perfect Hotel & Hostel",
        "source": "cadastre-dgi-fr source : Direction Générale des Impôts - Cadastre. Mise à jour : 2011",
        "tourism": "hotel"
      },
      "geometry": {
        "type": "Point",
        "coordinates": [
          2.3434989,
          48.8798562
        ]
      },
      "id": "node/251851366"
    },
    {
      "type": "Feature",
      "properties": {
        "@id": "node/251851395",
        "name": "Hôtel du Terrage",
        "tourism": "hotel"
      },
      "geometry": {
        "type": "Point",
        "coordinates": [
          2.3627064,
          48.8773197
        ]
      },
      "id": "node/251851395"
    },
    {
      "type": "Feature",
      "properties": {
        "@id": "node/251851402",
        "name": "Comfort Hotel Gare de l'Est",
        "tourism": "hotel",
        "wifi": "free"
      },
      "geometry": {
        "type": "Point",
        "coordinates": [
          2.3550205,
          48.8711954
        ]
      },
      "id": "node/251851402"
    },
    {
      "type": "Feature",
      "properties": {
        "@id": "node/252683844",
        "name": "Hôtel Hangely",
        "tourism": "hotel"
      },
      "geometry": {
        "type": "Point",
        "coordinates": [
          2.3685294,
          48.8661043
        ]
      },
      "id": "node/252683844"
    },
    {
      "type": "Feature",
      "properties": {
        "@id": "node/252683845",
        "name": "Hôtel Le Quartier République, Le Marais",
        "tourism": "hotel"
      },
      "geometry": {
        "type": "Point",
        "coordinates": [
          2.3747048,
          48.8670657
        ]
      },
      "id": "node/252683845"
    },
    {
      "type": "Feature",
      "properties": {
        "@id": "node/252683846",
        "name": "Le Général Hôtel",
        "tourism": "hotel"
      },
      "geometry": {
        "type": "Point",
        "coordinates": [
          2.3669,
          48.866247
        ]
      },
      "id": "node/252683846"
    },
    {
      "type": "Feature",
      "properties": {
        "@id": "node/252683847",
        "name": "Classics Hôtel",
        "tourism": "hotel"
      },
      "geometry": {
        "type": "Point",
        "coordinates": [
          2.3882956,
          48.8553916
        ]
      },
      "id": "node/252683847"
    },
    {
      "type": "Feature",
      "properties": {
        "@id": "node/252684077",
        "name": "Grand Hôtel Nouvel Opera",
        "tourism": "hotel"
      },
      "geometry": {
        "type": "Point",
        "coordinates": [
          2.3787982,
          48.8551772
        ]
      },
      "id": "node/252684077"
    },
    {
      "type": "Feature",
      "properties": {
        "@id": "node/252684078",
        "addr:housenumber": "8",
        "addr:street": "Rue de Nemours",
        "name": "Hôtel de Nemours",
        "source": "cadastre-dgi-fr source : Direction Générale des Impôts - Cadastre. Mise à jour : 2011",
        "tourism": "hotel",
        "wheelchair": "no"
      },
      "geometry": {
        "type": "Point",
        "coordinates": [
          2.372816,
          48.8651917
        ]
      },
      "id": "node/252684078"
    },
    {
      "type": "Feature",
      "properties": {
        "@id": "node/252732427",
        "name": "Hôtel du Nord et de l'Est",
        "tourism": "hotel"
      },
      "geometry": {
        "type": "Point",
        "coordinates": [
          2.367479,
          48.8658412
        ]
      },
      "id": "node/252732427"
    },
    {
      "type": "Feature",
      "properties": {
        "@id": "node/252788280",
        "name": "Blue Planet Hostel",
        "tourism": "hotel"
      },
      "geometry": {
        "type": "Point",
        "coordinates": [
          2.3753357,
          48.8456631
        ]
      },
      "id": "node/252788280"
    },
    {
      "type": "Feature",
      "properties": {
        "@id": "node/252789601",
        "name": "Hôtel Prince Albert",
        "tourism": "hotel"
      },
      "geometry": {
        "type": "Point",
        "coordinates": [
          2.3778628,
          48.8467986
        ]
      },
      "id": "node/252789601"
    },
    {
      "type": "Feature",
      "properties": {
        "@id": "node/252792985",
        "name": "Hôtel de l'Aveyron",
        "tourism": "hotel"
      },
      "geometry": {
        "type": "Point",
        "coordinates": [
          2.3707909,
          48.8470135
        ]
      },
      "id": "node/252792985"
    },
    {
      "type": "Feature",
      "properties": {
        "@id": "node/252793231",
        "name": "Corail Hotel",
        "tourism": "hotel"
      },
      "geometry": {
        "type": "Point",
        "coordinates": [
          2.3714639,
          48.8473827
        ]
      },
      "id": "node/252793231"
    },
    {
      "type": "Feature",
      "properties": {
        "@id": "node/252806984",
        "name": "Paris Reuilly - Aparthotels Adagio",
        "tourism": "hotel"
      },
      "geometry": {
        "type": "Point",
        "coordinates": [
          2.3856902,
          48.8490103
        ]
      },
      "id": "node/252806984"
    },
    {
      "type": "Feature",
      "properties": {
        "@id": "node/252806985",
        "name": "Hôtel Palym",
        "tourism": "hotel"
      },
      "geometry": {
        "type": "Point",
        "coordinates": [
          2.3733925,
          48.8462381
        ]
      },
      "id": "node/252806985"
    },
    {
      "type": "Feature",
      "properties": {
        "@id": "node/252807616",
        "name": "Hôtel Le Quartier Bercy - Square",
        "tourism": "hotel"
      },
      "geometry": {
        "type": "Point",
        "coordinates": [
          2.3927042,
          48.8395127
        ]
      },
      "id": "node/252807616"
    },
    {
      "type": "Feature",
      "properties": {
        "@id": "node/252809356",
        "name": "Novotel",
        "tourism": "hotel"
      },
      "geometry": {
        "type": "Point",
        "coordinates": [
          2.3754729,
          48.8452783
        ]
      },
      "id": "node/252809356"
    },
    {
      "type": "Feature",
      "properties": {
        "@id": "node/252817439",
        "name": "Kyriad Italie Gobelins",
        "tourism": "hotel"
      },
      "geometry": {
        "type": "Point",
        "coordinates": [
          2.3549627,
          48.8337413
        ]
      },
      "id": "node/252817439"
    },
    {
      "type": "Feature",
      "properties": {
        "@id": "node/252817440",
        "name": "Hôtel Ibis Paris Avenue d'Italie",
        "tourism": "hotel",
        "wheelchair": "yes",
        "wheelchair:description": "Elevators and sliding doors, not known if there any rooms are specially adapted to wheelchair users (standard rooms are not)"
      },
      "geometry": {
        "type": "Point",
        "coordinates": [
          2.3564885,
          48.8301361
        ]
      },
      "id": "node/252817440"
    },
    {
      "type": "Feature",
      "properties": {
        "@id": "node/252819330",
        "internet_access": "wlan",
        "name": "Ibis Styles - Butte aux Cailles",
        "operator": "Ibis",
        "rooms": "72",
        "stars": "3",
        "tourism": "hotel",
        "wheelchair": "limited"
      },
      "geometry": {
        "type": "Point",
        "coordinates": [
          2.3473418,
          48.828303
        ]
      },
      "id": "node/252819330"
    },
    {
      "type": "Feature",
      "properties": {
        "@id": "node/252819332",
        "name": "Jack's",
        "tourism": "hotel"
      },
      "geometry": {
        "type": "Point",
        "coordinates": [
          2.3593239,
          48.8328956
        ]
      },
      "id": "node/252819332"
    },
    {
      "type": "Feature",
      "properties": {
        "@id": "node/252819333",
        "name": "La Manufacture",
        "tourism": "hotel"
      },
      "geometry": {
        "type": "Point",
        "coordinates": [
          2.355328,
          48.8329337
        ]
      },
      "id": "node/252819333"
    },
    {
      "type": "Feature",
      "properties": {
        "@id": "node/252820658",
        "name": "Mercure Gobelins",
        "tourism": "hotel",
        "wheelchair": "no"
      },
      "geometry": {
        "type": "Point",
        "coordinates": [
          2.3538107,
          48.8321073
        ]
      },
      "id": "node/252820658"
    },
    {
      "type": "Feature",
      "properties": {
        "@id": "node/252820661",
        "name": "Holiday Inn Express Paris place d'Italie",
        "tourism": "hotel"
      },
      "geometry": {
        "type": "Point",
        "coordinates": [
          2.3571955,
          48.8315772
        ]
      },
      "id": "node/252820661"
    },
    {
      "type": "Feature",
      "properties": {
        "@id": "node/252820662",
        "name": "Hôtel Villa Lutece",
        "tourism": "hotel"
      },
      "geometry": {
        "type": "Point",
        "coordinates": [
          2.3601974,
          48.8363513
        ]
      },
      "id": "node/252820662"
    },
    {
      "type": "Feature",
      "properties": {
        "@id": "node/252860489",
        "contact:city": "Paris",
        "contact:country": "FR",
        "contact:housenumber": "1",
        "contact:postcode": "75014",
        "contact:street": "Avenue du Général Leclerc",
        "name": "Hôtel du Lion",
        "phone": "+33 1 40 47 04 00",
        "tourism": "hotel",
        "website": "http://www.paris-hotel-lion.com"
      },
      "geometry": {
        "type": "Point",
        "coordinates": [
          2.3319728,
          48.8333693
        ]
      },
      "id": "node/252860489"
    },
    {
      "type": "Feature",
      "properties": {
        "@id": "node/252958953",
        "name": "Le Parc",
        "tourism": "hotel"
      },
      "geometry": {
        "type": "Point",
        "coordinates": [
          2.2857115,
          48.8671624
        ]
      },
      "id": "node/252958953"
    },
    {
      "type": "Feature",
      "properties": {
        "@id": "node/252969206",
        "name": "Hôtel Prince Albert Monceau",
        "tourism": "hotel"
      },
      "geometry": {
        "type": "Point",
        "coordinates": [
          2.3137817,
          48.8867808
        ]
      },
      "id": "node/252969206"
    },
    {
      "type": "Feature",
      "properties": {
        "@id": "node/252969212",
        "name": "Hôtel Saint-Cyr Étoile",
        "tourism": "hotel"
      },
      "geometry": {
        "type": "Point",
        "coordinates": [
          2.2855736,
          48.8804472
        ]
      },
      "id": "node/252969212"
    },
    {
      "type": "Feature",
      "properties": {
        "@id": "node/253007446",
        "created_by": "JOSM",
        "name": "Hôtel Bonséjour",
        "tourism": "hotel"
      },
      "geometry": {
        "type": "Point",
        "coordinates": [
          2.3361789,
          48.8861896
        ]
      },
      "id": "node/253007446"
    },
    {
      "type": "Feature",
      "properties": {
        "@id": "node/253007447",
        "created_by": "JOSM",
        "name": "Hôtel Sofia",
        "tourism": "hotel"
      },
      "geometry": {
        "type": "Point",
        "coordinates": [
          2.3480296,
          48.8846951
        ]
      },
      "id": "node/253007447"
    },
    {
      "type": "Feature",
      "properties": {
        "@id": "node/253007449",
        "name": "Hôtel des Arts",
        "tourism": "hotel"
      },
      "geometry": {
        "type": "Point",
        "coordinates": [
          2.3264,
          48.8839698
        ]
      },
      "id": "node/253007449"
    },
    {
      "type": "Feature",
      "properties": {
        "@id": "node/253007450",
        "addr:city": "Paris",
        "addr:housenumber": "90",
        "addr:postcode": "75018",
        "addr:street": "Rue Ordener",
        "internet_access": "wlan",
        "name": "Hôtel Eden Montmartre",
        "smoking": "isolated",
        "stars": "3",
        "tourism": "hotel",
        "website": "http://edenhotel-montmartre.com"
      },
      "geometry": {
        "type": "Point",
        "coordinates": [
          2.342839,
          48.8928489
        ]
      },
      "id": "node/253007450"
    },
    {
      "type": "Feature",
      "properties": {
        "@id": "node/253007452",
        "name": "Paris Hotel",
        "tourism": "hotel"
      },
      "geometry": {
        "type": "Point",
        "coordinates": [
          2.3372618,
          48.8801463
        ]
      },
      "id": "node/253007452"
    },
    {
      "type": "Feature",
      "properties": {
        "@id": "node/253007453",
        "name": "Terrass'hôtel",
        "note": "SIC: the name is the owner's preferred spelling",
        "tourism": "hotel",
        "website": "http://www.terrass-hotel.com/"
      },
      "geometry": {
        "type": "Point",
        "coordinates": [
          2.333045,
          48.8865811
        ]
      },
      "id": "node/253007453"
    },
    {
      "type": "Feature",
      "properties": {
        "@id": "node/253983923",
        "name": "Hôtel Bonne Nouvelle",
        "stars": "2",
        "tourism": "hotel"
      },
      "geometry": {
        "type": "Point",
        "coordinates": [
          2.3495274,
          48.8693546
        ]
      },
      "id": "node/253983923"
    },
    {
      "type": "Feature",
      "properties": {
        "@id": "node/253986765",
        "name": "Tiquetonne Hôtel",
        "stars": "1",
        "tourism": "hotel"
      },
      "geometry": {
        "type": "Point",
        "coordinates": [
          2.3495828,
          48.8644952
        ]
      },
      "id": "node/253986765"
    },
    {
      "type": "Feature",
      "properties": {
        "@id": "node/253987375",
        "name": "Tryp Hôtel Paris François",
        "stars": "3",
        "tourism": "hotel",
        "website": "http://www.solmelia.com"
      },
      "geometry": {
        "type": "Point",
        "coordinates": [
          2.3426051,
          48.8713219
        ]
      },
      "id": "node/253987375"
    },
    {
      "type": "Feature",
      "properties": {
        "@id": "node/253993053",
        "name": "Hôtel Victoires Opéra",
        "tourism": "hotel"
      },
      "geometry": {
        "type": "Point",
        "coordinates": [
          2.3469659,
          48.8649114
        ]
      },
      "id": "node/253993053"
    },
    {
      "type": "Feature",
      "properties": {
        "@id": "node/254008894",
        "name": "Hôtel du Marais",
        "tourism": "hotel"
      },
      "geometry": {
        "type": "Point",
        "coordinates": [
          2.3650131,
          48.8615532
        ]
      },
      "id": "node/254008894"
    },
    {
      "type": "Feature",
      "properties": {
        "@id": "node/254009082",
        "name": "Grand Hôtel des Arts et Métiers",
        "tourism": "hotel"
      },
      "geometry": {
        "type": "Point",
        "coordinates": [
          2.3574075,
          48.8662848
        ]
      },
      "id": "node/254009082"
    },
    {
      "type": "Feature",
      "properties": {
        "@id": "node/255038752",
        "addr:housenumber": "10",
        "addr:street": "Avenue du Bel Air",
        "name": "Hôtel Royal Bel Air",
        "stars": "2",
        "tourism": "hotel"
      },
      "geometry": {
        "type": "Point",
        "coordinates": [
          2.3981137,
          48.8460247
        ]
      },
      "id": "node/255038752"
    },
    {
      "type": "Feature",
      "properties": {
        "@id": "node/256324365",
        "created_by": "Potlatch 0.8b",
        "name": "Hôtel Carladez Cambronne",
        "tourism": "hotel"
      },
      "geometry": {
        "type": "Point",
        "coordinates": [
          2.3032187,
          48.8421016
        ]
      },
      "id": "node/256324365"
    },
    {
      "type": "Feature",
      "properties": {
        "@id": "node/256324720",
        "name": "Novotel Paris Vaugirand Montparnasse",
        "tourism": "hotel"
      },
      "geometry": {
        "type": "Point",
        "coordinates": [
          2.3032478,
          48.8399264
        ]
      },
      "id": "node/256324720"
    },
    {
      "type": "Feature",
      "properties": {
        "@id": "node/259009772",
        "name": "Hôtel Ibis Cambronne",
        "stars": "3",
        "tourism": "hotel",
        "website": "http://www.accorhotels.com/fr/hotel-1400-ibis-paris-tour-eiffel-cambronne-15eme/index.shtml",
        "wheelchair": "yes"
      },
      "geometry": {
        "type": "Point",
        "coordinates": [
          2.3013512,
          48.8471379
        ]
      },
      "id": "node/259009772"
    },
    {
      "type": "Feature",
      "properties": {
        "@id": "node/259477205",
        "name": "Novotel Paris Gare Montparnasse",
        "tourism": "hotel"
      },
      "geometry": {
        "type": "Point",
        "coordinates": [
          2.3151043,
          48.8384924
        ]
      },
      "id": "node/259477205"
    },
    {
      "type": "Feature",
      "properties": {
        "@id": "node/262564135",
        "created_by": "Potlatch 0.8c",
        "name": "Kyriad",
        "tourism": "hotel"
      },
      "geometry": {
        "type": "Point",
        "coordinates": [
          2.038382,
          49.0532506
        ]
      },
      "id": "node/262564135"
    },
    {
      "type": "Feature",
      "properties": {
        "@id": "node/262566333",
        "created_by": "Potlatch 0.9",
        "name": "Bonsai",
        "tourism": "hotel"
      },
      "geometry": {
        "type": "Point",
        "coordinates": [
          2.0371404,
          49.0558029
        ]
      },
      "id": "node/262566333"
    },
    {
      "type": "Feature",
      "properties": {
        "@id": "node/262566400",
        "name": "Campanile",
        "opening_hours": "24/7",
        "tourism": "hotel"
      },
      "geometry": {
        "type": "Point",
        "coordinates": [
          2.0366139,
          49.0558211
        ]
      },
      "id": "node/262566400"
    },
    {
      "type": "Feature",
      "properties": {
        "@id": "node/262810891",
        "addr:full": "1, Avenue du Promenoir | Rue du Petit Albi, Pa d'Horloge BP 68289, 95804 Cergy-Pontoise, France",
        "addr:housenumber": "1",
        "addr:place": "Cergy-Pontoise",
        "addr:postcode": "95804",
        "addr:street": "Avenue du Promenoir Rue du Petit Albi",
        "brand": "Accor",
        "comment": "Reception is open from at least: 6:30am to 9:30am and 5pm to 9pm during the week, 7:30am to 10:30am and 5pm to 9pm on Saturdays, Sundays and public holidays. Otherwise use ATM at entrance to get room access code.",
        "internet_access": "wlan",
        "internet_access:fee": "no",
        "name": "Ibis Budget",
        "old_name": "Etap Hotel",
        "opening_hours": "24/7",
        "operator": "Ibis Budget",
        "phone": "+33 892 680920",
        "rooms": "66",
        "tourism": "hotel",
        "website": "www.ibis.com/fr/hotel-4981-ibis-budget-cergy-saint-christophe/index.shtml"
      },
      "geometry": {
        "type": "Point",
        "coordinates": [
          2.0381496,
          49.0560703
        ]
      },
      "id": "node/262810891"
    },
    {
      "type": "Feature",
      "properties": {
        "@id": "node/265606996",
        "email": "hotelmoderne@yahoo.fr",
        "name": "Hôtel Moderne",
        "phone": "+33 1 40 93 58 48",
        "tourism": "hotel",
        "website": "www.hotelmoderne.net"
      },
      "geometry": {
        "type": "Point",
        "coordinates": [
          2.2781477,
          48.8261138
        ]
      },
      "id": "node/265606996"
    },
    {
      "type": "Feature",
      "properties": {
        "@id": "node/267211208",
        "name": "Hôtel Kuntz",
        "rooms": "35",
        "source": "survey 11/2017",
        "stars": "2",
        "tourism": "hotel",
        "website": "http://www.hotelkuntz.com/"
      },
      "geometry": {
        "type": "Point",
        "coordinates": [
          2.3582756,
          48.878472
        ]
      },
      "id": "node/267211208"
    },
    {
      "type": "Feature",
      "properties": {
        "@id": "node/267352605",
        "tourism": "hotel"
      },
      "geometry": {
        "type": "Point",
        "coordinates": [
          2.3338172,
          48.9222099
        ]
      },
      "id": "node/267352605"
    },
    {
      "type": "Feature",
      "properties": {
        "@id": "node/267486654",
        "alt_name": "Hôtel Formule 1 Porte de Montmartre",
        "name": "HotelF1 Porte de Montmartre",
        "toilets:wheelchair": "yes",
        "tourism": "hotel",
        "wheelchair": "yes"
      },
      "geometry": {
        "type": "Point",
        "coordinates": [
          2.3325958,
          48.9011416
        ]
      },
      "id": "node/267486654"
    },
    {
      "type": "Feature",
      "properties": {
        "@id": "node/268057549",
        "name": "Hôtel Le Littré",
        "toilets:wheelchair": "yes",
        "tourism": "hotel",
        "wheelchair": "yes"
      },
      "geometry": {
        "type": "Point",
        "coordinates": [
          2.3241304,
          48.8454273
        ]
      },
      "id": "node/268057549"
    },
    {
      "type": "Feature",
      "properties": {
        "@id": "node/274096506",
        "name": "Ibis",
        "tourism": "hotel",
        "wheelchair": "limited"
      },
      "geometry": {
        "type": "Point",
        "coordinates": [
          2.5416931,
          48.837876
        ]
      },
      "id": "node/274096506"
    },
    {
      "type": "Feature",
      "properties": {
        "@id": "node/274247570",
        "name": "Hôtel Crimée",
        "tourism": "hotel",
        "wheelchair": "no"
      },
      "geometry": {
        "type": "Point",
        "coordinates": [
          2.3763728,
          48.8911605
        ]
      },
      "id": "node/274247570"
    },
    {
      "type": "Feature",
      "properties": {
        "@id": "node/274249824",
        "name": "Hôtel Ermitage",
        "tourism": "hotel"
      },
      "geometry": {
        "type": "Point",
        "coordinates": [
          2.3927092,
          48.8717563
        ]
      },
      "id": "node/274249824"
    },
    {
      "type": "Feature",
      "properties": {
        "@id": "node/274258047",
        "name": "Hôtel Balzac",
        "tourism": "hotel"
      },
      "geometry": {
        "type": "Point",
        "coordinates": [
          2.3004615,
          48.8733283
        ]
      },
      "id": "node/274258047"
    },
    {
      "type": "Feature",
      "properties": {
        "@id": "node/274259534",
        "addr:city": "Paris",
        "addr:country": "FR",
        "addr:housenumber": "11",
        "addr:postcode": "75017",
        "addr:street": "Rue des Acacias",
        "name": "Hôtel Acacias Etoile",
        "smoking": "outside",
        "toilets:wheelchair": "yes",
        "tourism": "hotel",
        "wheelchair": "yes"
      },
      "geometry": {
        "type": "Point",
        "coordinates": [
          2.2907798,
          48.8766342
        ]
      },
      "id": "node/274259534"
    },
    {
      "type": "Feature",
      "properties": {
        "@id": "node/274261929",
        "name": "Le Grand Hôtel Intercontinental",
        "tourism": "hotel",
        "wheelchair": "yes",
        "wikidata": "Q3153054",
        "wikipedia": "fr:InterContinental Paris Le Grand"
      },
      "geometry": {
        "type": "Point",
        "coordinates": [
          2.3304172,
          48.8706664
        ]
      },
      "id": "node/274261929"
    },
    {
      "type": "Feature",
      "properties": {
        "@id": "node/276203548",
        "name": "Ibis",
        "tourism": "hotel"
      },
      "geometry": {
        "type": "Point",
        "coordinates": [
          2.3211689,
          48.8273283
        ]
      },
      "id": "node/276203548"
    },
    {
      "type": "Feature",
      "properties": {
        "@id": "node/276665362",
        "name": "Holiday Inn",
        "tourism": "hotel",
        "wheelchair": "yes"
      },
      "geometry": {
        "type": "Point",
        "coordinates": [
          2.5497016,
          48.8400333
        ]
      },
      "id": "node/276665362"
    },
    {
      "type": "Feature",
      "properties": {
        "@id": "node/276919076",
        "amenity": "restaurant",
        "name": "Le Vélodrome",
        "tourism": "hotel"
      },
      "geometry": {
        "type": "Point",
        "coordinates": [
          2.2586505,
          48.8381218
        ]
      },
      "id": "node/276919076"
    },
    {
      "type": "Feature",
      "properties": {
        "@id": "node/280999683",
        "created_by": "Merkaartor 0.12",
        "name": "Ibis",
        "tourism": "hotel"
      },
      "geometry": {
        "type": "Point",
        "coordinates": [
          2.290851,
          48.9258658
        ]
      },
      "id": "node/280999683"
    },
    {
      "type": "Feature",
      "properties": {
        "@id": "node/281000310",
        "name": "Hôtel Royal Aboukir",
        "tourism": "hotel"
      },
      "geometry": {
        "type": "Point",
        "coordinates": [
          2.3500099,
          48.8685689
        ]
      },
      "id": "node/281000310"
    },
    {
      "type": "Feature",
      "properties": {
        "@id": "node/289425906",
        "name": "Grand Hôtel Leveque",
        "tourism": "hotel"
      },
      "geometry": {
        "type": "Point",
        "coordinates": [
          2.3062436,
          48.8574419
        ]
      },
      "id": "node/289425906"
    },
    {
      "type": "Feature",
      "properties": {
        "@id": "node/289439794",
        "name": "Hôtel Sofitel Le Faubourg",
        "tourism": "hotel",
        "wheelchair": "yes"
      },
      "geometry": {
        "type": "Point",
        "coordinates": [
          2.3213802,
          48.8684048
        ]
      },
      "id": "node/289439794"
    },
    {
      "type": "Feature",
      "properties": {
        "@id": "node/289464150",
        "addr:city": "Paris",
        "addr:housenumber": "11",
        "addr:postcode": "75008",
        "addr:street": "Rue d'Astorg",
        "brand": "Curio",
        "contact:facebook": "https://www.facebook.com/MaisonAstorParis",
        "email": "bienvenue@maisonastorparis.com",
        "fax": "+33-1-53050530",
        "internet_access": "wlan",
        "name": "Maison Astor Paris, Curio Collection by Hilton",
        "operator": "Hilton",
        "phone": "+33-6-43836448",
        "rooms": "131",
        "smoking": "no",
        "stars": "4",
        "tourism": "hotel",
        "website": "http://curiocollection3.hilton.com/en/hotels/france/maison-astor-paris-curio-collection-by-hilton-PARAHQQ/index.html?WT.mc_id=zVSEC0FR1QQ2NaturalSearch3GoogleMyBusiness4Luau-AstorParis_Dec5Luau6PARAHQQ7EN8i1"
      },
      "geometry": {
        "type": "Point",
        "coordinates": [
          2.3193054,
          48.8728474
        ]
      },
      "id": "node/289464150"
    },
    {
      "type": "Feature",
      "properties": {
        "@id": "node/290831774",
        "name": "Radisson SAS",
        "name:zh": "丽笙布鲁巴黎戴高乐机场酒店",
        "tourism": "hotel"
      },
      "geometry": {
        "type": "Point",
        "coordinates": [
          2.599699,
          49.0219367
        ]
      },
      "id": "node/290831774"
    },
    {
      "type": "Feature",
      "properties": {
        "@id": "node/293982721",
        "name": "Crowne Plaza",
        "tourism": "hotel"
      },
      "geometry": {
        "type": "Point",
        "coordinates": [
          2.3655555,
          48.8672306
        ]
      },
      "id": "node/293982721"
    },
    {
      "type": "Feature",
      "properties": {
        "@id": "node/293986527",
        "name": "Hôtel Verlain",
        "tourism": "hotel"
      },
      "geometry": {
        "type": "Point",
        "coordinates": [
          2.3776744,
          48.8649422
        ]
      },
      "id": "node/293986527"
    },
    {
      "type": "Feature",
      "properties": {
        "@id": "node/294038640",
        "name": "Hôtel Antinéa",
        "tourism": "hotel"
      },
      "geometry": {
        "type": "Point",
        "coordinates": [
          2.3739591,
          48.8782575
        ]
      },
      "id": "node/294038640"
    },
    {
      "type": "Feature",
      "properties": {
        "@id": "node/296925002",
        "name": "Best Western plus",
        "operator": "Best Western",
        "tourism": "hotel"
      },
      "geometry": {
        "type": "Point",
        "coordinates": [
          1.9454767,
          48.7593057
        ]
      },
      "id": "node/296925002"
    },
    {
      "type": "Feature",
      "properties": {
        "@id": "node/297142202",
        "name": "Campanile",
        "tourism": "hotel"
      },
      "geometry": {
        "type": "Point",
        "coordinates": [
          1.9456779,
          48.7577432
        ]
      },
      "id": "node/297142202"
    },
    {
      "type": "Feature",
      "properties": {
        "@id": "node/298569320",
        "name": "Hôtel Valadon",
        "stars": "2",
        "tourism": "hotel"
      },
      "geometry": {
        "type": "Point",
        "coordinates": [
          2.3055714,
          48.8567926
        ]
      },
      "id": "node/298569320"
    },
    {
      "type": "Feature",
      "properties": {
        "@id": "node/298616758",
        "name": "Auberge des Moissons",
        "tourism": "hotel",
        "wheelchair": "yes"
      },
      "geometry": {
        "type": "Point",
        "coordinates": [
          4.2443188,
          48.9919326
        ]
      },
      "id": "node/298616758"
    },
    {
      "type": "Feature",
      "properties": {
        "@id": "node/301230132",
        "name": "Domaine des Portes de Sologne",
        "tourism": "hotel"
      },
      "geometry": {
        "type": "Point",
        "coordinates": [
          1.9113876,
          47.8204451
        ]
      },
      "id": "node/301230132"
    },
    {
      "type": "Feature",
      "properties": {
        "@id": "node/303825545",
        "addr:city": "Bagnolet",
        "addr:housenumber": "1",
        "addr:postcode": "93177",
        "addr:street": "Avenue de la République",
        "name": "Novotel Paris Est",
        "tourism": "hotel"
      },
      "geometry": {
        "type": "Point",
        "coordinates": [
          2.4154137,
          48.8631314
        ]
      },
      "id": "node/303825545"
    },
    {
      "type": "Feature",
      "properties": {
        "@id": "node/304741556",
        "tourism": "hotel"
      },
      "geometry": {
        "type": "Point",
        "coordinates": [
          2.2730115,
          48.8235049
        ]
      },
      "id": "node/304741556"
    },
    {
      "type": "Feature",
      "properties": {
        "@id": "node/304741581",
        "name": "Classics - Parc Des Expositions",
        "stars": "3",
        "tourism": "hotel"
      },
      "geometry": {
        "type": "Point",
        "coordinates": [
          2.2730739,
          48.8234066
        ]
      },
      "id": "node/304741581"
    },
    {
      "type": "Feature",
      "properties": {
        "@id": "node/306024613",
        "name": "Hôtel États-Unis Opéra",
        "tourism": "hotel"
      },
      "geometry": {
        "type": "Point",
        "coordinates": [
          2.333652,
          48.8689702
        ]
      },
      "id": "node/306024613"
    },
    {
      "type": "Feature",
      "properties": {
        "@id": "node/306025542",
        "name": "Hôtel L'Horset Opéra",
        "tourism": "hotel"
      },
      "geometry": {
        "type": "Point",
        "coordinates": [
          2.3338065,
          48.8690718
        ]
      },
      "id": "node/306025542"
    },
    {
      "type": "Feature",
      "properties": {
        "@id": "node/306154661",
        "created_by": "JOSM",
        "name": "Hôtel Saint-Cyr Étoile",
        "tourism": "hotel"
      },
      "geometry": {
        "type": "Point",
        "coordinates": [
          2.3058396,
          48.8867704
        ]
      },
      "id": "node/306154661"
    },
    {
      "type": "Feature",
      "properties": {
        "@id": "node/306911945",
        "name": "Hôtel Val Girard",
        "stars": "3",
        "tourism": "hotel"
      },
      "geometry": {
        "type": "Point",
        "coordinates": [
          2.2993225,
          48.8407077
        ]
      },
      "id": "node/306911945"
    },
    {
      "type": "Feature",
      "properties": {
        "@id": "node/307656393",
        "created_by": "Potlatch 0.10e",
        "tourism": "hotel"
      },
      "geometry": {
        "type": "Point",
        "coordinates": [
          2.1043532,
          49.0254989
        ]
      },
      "id": "node/307656393"
    },
    {
      "type": "Feature",
      "properties": {
        "@id": "node/308113480",
        "name": "Alizé Grenelle",
        "tourism": "hotel",
        "url": "http://www.hotelbeaugralize.com/Alize/"
      },
      "geometry": {
        "type": "Point",
        "coordinates": [
          2.2878241,
          48.8467419
        ]
      },
      "id": "node/308113480"
    },
    {
      "type": "Feature",
      "properties": {
        "@id": "node/308113482",
        "name": "Beaugrenelle Saint-Charles",
        "tourism": "hotel",
        "url": "http://hotelbeaugralize.com/Beaugrenelle/"
      },
      "geometry": {
        "type": "Point",
        "coordinates": [
          2.2858925,
          48.8472201
        ]
      },
      "id": "node/308113482"
    },
    {
      "type": "Feature",
      "properties": {
        "@id": "node/308530497",
        "name": "Hôtel Scribe",
        "name:zh": "索菲特巴黎斯克里布酒店",
        "stars": "5",
        "tourism": "hotel"
      },
      "geometry": {
        "type": "Point",
        "coordinates": [
          2.3297901,
          48.8706403
        ]
      },
      "id": "node/308530497"
    },
    {
      "type": "Feature",
      "properties": {
        "@id": "node/310294465",
        "name": "Holiday Inn",
        "stars": "4",
        "tourism": "hotel"
      },
      "geometry": {
        "type": "Point",
        "coordinates": [
          2.3062844,
          48.837696
        ]
      },
      "id": "node/310294465"
    },
    {
      "type": "Feature",
      "properties": {
        "@id": "node/313182970",
        "created_by": "Potlatch 0.10f",
        "name": "Les Balladins",
        "tourism": "hotel"
      },
      "geometry": {
        "type": "Point",
        "coordinates": [
          2.65061,
          48.8495007
        ]
      },
      "id": "node/313182970"
    },
    {
      "type": "Feature",
      "properties": {
        "@id": "node/320952615",
        "addr:street": "Boulevard Saint-Michel",
        "name": "Hôtel Cluny Square",
        "stars": "3",
        "tourism": "hotel"
      },
      "geometry": {
        "type": "Point",
        "coordinates": [
          2.3435085,
          48.8515866
        ]
      },
      "id": "node/320952615"
    },
    {
      "type": "Feature",
      "properties": {
        "@id": "node/320952626",
        "name": "Hôtel de Suez",
        "tourism": "hotel"
      },
      "geometry": {
        "type": "Point",
        "coordinates": [
          2.3425905,
          48.8498226
        ]
      },
      "id": "node/320952626"
    },
    {
      "type": "Feature",
      "properties": {
        "@id": "node/321007299",
        "addr:city": "Courbevoie",
        "addr:country": "FR",
        "addr:housenumber": "1-8",
        "addr:postcode": "92400",
        "addr:street": "Boulevard de Neuilly",
        "email": "ladefense@citadines.com",
        "fax": "+33 1 47 78 95 00",
        "internet_access": "yes",
        "internet_access:fee": "no",
        "name": "Citadines La Défense Paris",
        "operator": "Apart Hotel",
        "phone": "+33 1 58 13 57 57",
        "smoking": "no",
        "source": "local_knowledge",
        "stars": "3",
        "tourism": "hotel",
        "website": "http://www.citadines.com/france/paris/la_defense.html"
      },
      "geometry": {
        "type": "Point",
        "coordinates": [
          2.2523687,
          48.8887706
        ]
      },
      "id": "node/321007299"
    },
    {
      "type": "Feature",
      "properties": {
        "@id": "node/321205142",
        "name": "Hôtel de la place des Alpes",
        "tourism": "hotel"
      },
      "geometry": {
        "type": "Point",
        "coordinates": [
          2.3588862,
          48.8321555
        ]
      },
      "id": "node/321205142"
    },
    {
      "type": "Feature",
      "properties": {
        "@id": "node/321287189",
        "name": "Chinagora",
        "tourism": "hotel"
      },
      "geometry": {
        "type": "Point",
        "coordinates": [
          2.4116258,
          48.8153394
        ]
      },
      "id": "node/321287189"
    },
    {
      "type": "Feature",
      "properties": {
        "@id": "node/323192617",
        "amenity": "restaurant",
        "cuisine": "regional",
        "name": "Le Moulin du Bief",
        "tourism": "hotel"
      },
      "geometry": {
        "type": "Point",
        "coordinates": [
          2.8953444,
          48.0638931
        ]
      },
      "id": "node/323192617"
    },
    {
      "type": "Feature",
      "properties": {
        "@id": "node/324191957",
        "name": "Hôtel Paris Est Lafayette",
        "smoking": "outside",
        "tourism": "hotel"
      },
      "geometry": {
        "type": "Point",
        "coordinates": [
          2.3543165,
          48.8772727
        ]
      },
      "id": "node/324191957"
    },
    {
      "type": "Feature",
      "properties": {
        "@id": "node/338242543",
        "name": "Hôtel du Prince Eugène",
        "stars": "2",
        "tourism": "hotel"
      },
      "geometry": {
        "type": "Point",
        "coordinates": [
          2.3924817,
          48.8506769
        ]
      },
      "id": "node/338242543"
    },
    {
      "type": "Feature",
      "properties": {
        "@id": "node/346359755",
        "addr:housenumber": "23",
        "addr:postcode": "75018",
        "addr:street": "Avenue Junot",
        "name": "Le Très Particulier",
        "source": "cadastre-dgi-fr source : Direction Générale des Impôts - Cadastre. Mise à jour : 2009",
        "tourism": "hotel",
        "website": "https://www.hotel-particulier-montmartre.com/"
      },
      "geometry": {
        "type": "Point",
        "coordinates": [
          2.3356733,
          48.8882506
        ]
      },
      "id": "node/346359755"
    },
    {
      "type": "Feature",
      "properties": {
        "@id": "node/348153210",
        "name": "Balladins ???",
        "source": "cadastre-dgi-fr source : Direction Générale des Impôts - Cadastre;mise à jour : 2008",
        "tourism": "hotel"
      },
      "geometry": {
        "type": "Point",
        "coordinates": [
          4.0204668,
          49.2208829
        ]
      },
      "id": "node/348153210"
    },
    {
      "type": "Feature",
      "properties": {
        "@id": "node/354653445",
        "name": "Grand Hotel Français",
        "tourism": "hotel"
      },
      "geometry": {
        "type": "Point",
        "coordinates": [
          2.3906806,
          48.8515615
        ]
      },
      "id": "node/354653445"
    },
    {
      "type": "Feature",
      "properties": {
        "@id": "node/354658898",
        "name": "Grand Hôtel Doré",
        "stars": "3",
        "tourism": "hotel"
      },
      "geometry": {
        "type": "Point",
        "coordinates": [
          2.39747,
          48.839153
        ]
      },
      "id": "node/354658898"
    },
    {
      "type": "Feature",
      "properties": {
        "@id": "node/354664734",
        "addr:city": "Paris",
        "addr:housenumber": "94",
        "addr:postcode": "75015",
        "addr:street": "Boulevard Garibaldi",
        "name": "Hôtel Sublim Eiffel",
        "tourism": "hotel",
        "wheelchair": "limited"
      },
      "geometry": {
        "type": "Point",
        "coordinates": [
          2.3101111,
          48.845234
        ]
      },
      "id": "node/354664734"
    },
    {
      "type": "Feature",
      "properties": {
        "@id": "node/355519326",
        "addr:city": "Buc",
        "addr:housenumber": "12",
        "addr:postcode": "78530",
        "addr:street": "Rue Louis Massotte",
        "name": "Buc Lounge Hôtel",
        "phone": "+33 1 39 56 34 15",
        "stars": "2",
        "tourism": "hotel",
        "website": "www.bucloungehotel.fr"
      },
      "geometry": {
        "type": "Point",
        "coordinates": [
          2.1244065,
          48.7721692
        ]
      },
      "id": "node/355519326"
    },
    {
      "type": "Feature",
      "properties": {
        "@id": "node/356064537",
        "name": "Comfort",
        "tourism": "hotel"
      },
      "geometry": {
        "type": "Point",
        "coordinates": [
          2.5904806,
          49.0207746
        ]
      },
      "id": "node/356064537"
    },
    {
      "type": "Feature",
      "properties": {
        "@id": "node/356064552",
        "addr:postcode": "77990",
        "name": "Campanille",
        "operator": "Campanille",
        "tourism": "hotel"
      },
      "geometry": {
        "type": "Point",
        "coordinates": [
          2.5868233,
          49.0180213
        ]
      },
      "id": "node/356064552"
    },
    {
      "type": "Feature",
      "properties": {
        "@id": "node/359642231",
        "name": "Amarys Versailles",
        "stars": "2",
        "tourism": "hotel"
      },
      "geometry": {
        "type": "Point",
        "coordinates": [
          2.117722,
          48.7675521
        ]
      },
      "id": "node/359642231"
    },
    {
      "type": "Feature",
      "properties": {
        "@id": "node/361128665",
        "contact:city": "Paris",
        "contact:country": "FR",
        "contact:housenumber": "4",
        "contact:postcode": "75010",
        "contact:street": "Rue Lucien Sampaix",
        "name": "Hôtel Albouy",
        "stars": "2",
        "tourism": "hotel"
      },
      "geometry": {
        "type": "Point",
        "coordinates": [
          2.3598696,
          48.8707687
        ]
      },
      "id": "node/361128665"
    },
    {
      "type": "Feature",
      "properties": {
        "@id": "node/368330079",
        "name": "Relais du Pré",
        "stars": "3",
        "tourism": "hotel",
        "wheelchair": "limited"
      },
      "geometry": {
        "type": "Point",
        "coordinates": [
          2.3475708,
          48.8780025
        ]
      },
      "id": "node/368330079"
    },
    {
      "type": "Feature",
      "properties": {
        "@id": "node/368330088",
        "name": "Hôtel du Pré",
        "stars": "3",
        "tourism": "hotel",
        "wheelchair": "limited"
      },
      "geometry": {
        "type": "Point",
        "coordinates": [
          2.3471837,
          48.8775316
        ]
      },
      "id": "node/368330088"
    },
    {
      "type": "Feature",
      "properties": {
        "@id": "node/368330093",
        "name": "Résidence du Pré",
        "stars": "3",
        "tourism": "hotel",
        "wheelchair": "yes"
      },
      "geometry": {
        "type": "Point",
        "coordinates": [
          2.3475786,
          48.8784021
        ]
      },
      "id": "node/368330093"
    },
    {
      "type": "Feature",
      "properties": {
        "@id": "node/385459388",
        "name": "Le Sanibel",
        "tourism": "hotel"
      },
      "geometry": {
        "type": "Point",
        "coordinates": [
          1.8965165,
          47.9269521
        ]
      },
      "id": "node/385459388"
    },
    {
      "type": "Feature",
      "properties": {
        "@id": "node/393454854",
        "name": "B&B Hôtel",
        "phone": "+33 892 788075",
        "tourism": "hotel",
        "wheelchair": "yes",
        "wheelchair:description": "3 chambre adapte avec lit double,  et la salle petit dej' au R de C."
      },
      "geometry": {
        "type": "Point",
        "coordinates": [
          1.8542962,
          47.8978367
        ]
      },
      "id": "node/393454854"
    },
    {
      "type": "Feature",
      "properties": {
        "@id": "node/394566883",
        "name": "Au Manoir Saint-Germain des Prés",
        "stars": "3",
        "tourism": "hotel",
        "wikidata": "Q23258"
      },
      "geometry": {
        "type": "Point",
        "coordinates": [
          2.3323137,
          48.8537719
        ]
      },
      "id": "node/394566883"
    },
    {
      "type": "Feature",
      "properties": {
        "@id": "node/408959736",
        "name": "Adagio Paris Montmartre",
        "stars": "4",
        "toilets:wheelchair": "no",
        "tourism": "hotel",
        "wheelchair": "no"
      },
      "geometry": {
        "type": "Point",
        "coordinates": [
          2.342548,
          48.8831159
        ]
      },
      "id": "node/408959736"
    },
    {
      "type": "Feature",
      "properties": {
        "@id": "node/408961558",
        "addr:housenumber": "5",
        "addr:street": "Passage Ruelle",
        "name": "Kube Hotel",
        "stars": "4",
        "tourism": "hotel"
      },
      "geometry": {
        "type": "Point",
        "coordinates": [
          2.358851,
          48.8865976
        ]
      },
      "id": "node/408961558"
    },
    {
      "type": "Feature",
      "properties": {
        "@id": "node/409012772",
        "addr:city": "Paris",
        "addr:housenumber": "188",
        "addr:postcode": "75019",
        "addr:street": "Avenue Jean Jaurès",
        "cuisine": "french",
        "name": "Au Boeuf Couronné - Hôtel & Restaurant",
        "tourism": "hotel",
        "website": "https://www.boeuf-couronne.com"
      },
      "geometry": {
        "type": "Point",
        "coordinates": [
          2.3910565,
          48.8880361
        ]
      },
      "id": "node/409012772"
    },
    {
      "type": "Feature",
      "properties": {
        "@id": "node/409552544",
        "name": "Hôtel Cujas Panthéon",
        "stars": "4",
        "toilets:wheelchair": "no",
        "tourism": "hotel",
        "wheelchair": "no"
      },
      "geometry": {
        "type": "Point",
        "coordinates": [
          2.3419715,
          48.8481953
        ]
      },
      "id": "node/409552544"
    },
    {
      "type": "Feature",
      "properties": {
        "@id": "node/412221222",
        "name": "Hôtel Saint-Charles",
        "tourism": "hotel"
      },
      "geometry": {
        "type": "Point",
        "coordinates": [
          2.3482326,
          48.82713
        ]
      },
      "id": "node/412221222"
    },
    {
      "type": "Feature",
      "properties": {
        "@id": "node/414195849",
        "contact:fax": "+33 1 43 31 96 03",
        "contact:phone": "+33 1 43 31 37 50",
        "contact:website": "www.hoteldevillas.com",
        "name": "Hôtel deVillas",
        "tourism": "hotel",
        "wheelchair": "yes"
      },
      "geometry": {
        "type": "Point",
        "coordinates": [
          2.3612991,
          48.8400155
        ]
      },
      "id": "node/414195849"
    },
    {
      "type": "Feature",
      "properties": {
        "@id": "node/418140402",
        "name": "Idéal Hotel",
        "tourism": "hotel"
      },
      "geometry": {
        "type": "Point",
        "coordinates": [
          2.3752283,
          48.8675681
        ]
      },
      "id": "node/418140402"
    },
    {
      "type": "Feature",
      "properties": {
        "@id": "node/418510260",
        "name": "Montparnasse Rive Gauche",
        "stars": "2",
        "tourism": "hotel"
      },
      "geometry": {
        "type": "Point",
        "coordinates": [
          2.3218269,
          48.8316922
        ]
      },
      "id": "node/418510260"
    },
    {
      "type": "Feature",
      "properties": {
        "@id": "node/426204040",
        "addr:city": "Paris",
        "addr:country": "FR",
        "addr:housenumber": "18",
        "addr:postcode": "75013",
        "addr:street": "Place d'Italie",
        "alt_name": "Citadines italy",
        "email": "italie@citadines.com",
        "fax": "+33 1 43 13 86 99",
        "name": "Citadines Place d'Italie",
        "operator": "Citadines",
        "phone": "+33 1 43 13 85 00",
        "tourism": "hotel",
        "website": "www.citadines.com",
        "wheelchair": "yes"
      },
      "geometry": {
        "type": "Point",
        "coordinates": [
          2.3549865,
          48.8305203
        ]
      },
      "id": "node/426204040"
    },
    {
      "type": "Feature",
      "properties": {
        "@id": "node/432700796",
        "name": "Campanile - Le Blanc-Mesnil",
        "operator": "Campanile",
        "tourism": "hotel"
      },
      "geometry": {
        "type": "Point",
        "coordinates": [
          2.4663702,
          48.9506843
        ]
      },
      "id": "node/432700796"
    },
    {
      "type": "Feature",
      "properties": {
        "@id": "node/432700804",
        "name": "Kyriad - Le Blanc-Mesnil",
        "operator": "Kyriad",
        "tourism": "hotel"
      },
      "geometry": {
        "type": "Point",
        "coordinates": [
          2.4662704,
          48.9504855
        ]
      },
      "id": "node/432700804"
    },
    {
      "type": "Feature",
      "properties": {
        "@id": "node/441267990",
        "addr:city": "Provins",
        "addr:housenumber": "77",
        "addr:postcode": "77160",
        "addr:street": "Avenue du Général de Gaulle",
        "name": "Ibis",
        "phone": "+33160676667",
        "tourism": "hotel"
      },
      "geometry": {
        "type": "Point",
        "coordinates": [
          3.281585,
          48.5574909
        ]
      },
      "id": "node/441267990"
    },
    {
      "type": "Feature",
      "properties": {
        "@id": "node/441579637",
        "name": "Mercure",
        "tourism": "hotel"
      },
      "geometry": {
        "type": "Point",
        "coordinates": [
          2.1179619,
          48.8294777
        ]
      },
      "id": "node/441579637"
    },
    {
      "type": "Feature",
      "properties": {
        "@id": "node/441579640",
        "name": "Ibis",
        "source": "survey",
        "tourism": "hotel"
      },
      "geometry": {
        "type": "Point",
        "coordinates": [
          2.1187597,
          48.8264218
        ]
      },
      "id": "node/441579640"
    },
    {
      "type": "Feature",
      "properties": {
        "@id": "node/442350192",
        "name": "Astor",
        "tourism": "hotel"
      },
      "geometry": {
        "type": "Point",
        "coordinates": [
          2.2251051,
          48.8707641
        ]
      },
      "id": "node/442350192"
    },
    {
      "type": "Feature",
      "properties": {
        "@id": "node/444346290",
        "amenity": "restaurant",
        "description": "Novotel Poissy Orgeval",
        "name": "Novotel",
        "tourism": "hotel"
      },
      "geometry": {
        "type": "Point",
        "coordinates": [
          1.9957894,
          48.9248964
        ]
      },
      "id": "node/444346290"
    },
    {
      "type": "Feature",
      "properties": {
        "@id": "node/461871813",
        "name": "Formule 1",
        "operator": "accor",
        "stars": "1",
        "tourism": "hotel",
        "website": "http://www.accorhotels.com/de/hotel-2370-formule-1-hotelf1-orleans-la-chapelle-st-mesmin/index.shtml"
      },
      "geometry": {
        "type": "Point",
        "coordinates": [
          1.8515109,
          47.8953526
        ]
      },
      "id": "node/461871813"
    },
    {
      "type": "Feature",
      "properties": {
        "@id": "node/471410543",
        "name": "Ibis Budget",
        "operator": "Accor Hotel",
        "tourism": "hotel"
      },
      "geometry": {
        "type": "Point",
        "coordinates": [
          2.4164765,
          48.8493663
        ]
      },
      "id": "node/471410543"
    },
    {
      "type": "Feature",
      "properties": {
        "@id": "node/472017014",
        "name": "Campanile",
        "tourism": "hotel"
      },
      "geometry": {
        "type": "Point",
        "coordinates": [
          2.553065,
          48.9611278
        ]
      },
      "id": "node/472017014"
    },
    {
      "type": "Feature",
      "properties": {
        "@id": "node/472017254",
        "name": "Premier Classe",
        "tourism": "hotel"
      },
      "geometry": {
        "type": "Point",
        "coordinates": [
          2.5538021,
          48.9610447
        ]
      },
      "id": "node/472017254"
    },
    {
      "type": "Feature",
      "properties": {
        "@id": "node/472351942",
        "name": "Ibis",
        "operator": "Accor",
        "stars": "3",
        "tourism": "hotel",
        "wheelchair": "no"
      },
      "geometry": {
        "type": "Point",
        "coordinates": [
          2.4053733,
          48.8350411
        ]
      },
      "id": "node/472351942"
    },
    {
      "type": "Feature",
      "properties": {
        "@id": "node/472351943",
        "tourism": "hotel"
      },
      "geometry": {
        "type": "Point",
        "coordinates": [
          2.4060195,
          48.8360061
        ]
      },
      "id": "node/472351943"
    },
    {
      "type": "Feature",
      "properties": {
        "@id": "node/472351944",
        "contact:website": "http://www.hotelinterlude.com/",
        "name": "L'Interlude",
        "stars": "3",
        "tourism": "hotel",
        "wheelchair": "yes"
      },
      "geometry": {
        "type": "Point",
        "coordinates": [
          2.4036639,
          48.8363649
        ]
      },
      "id": "node/472351944"
    },
    {
      "type": "Feature",
      "properties": {
        "@id": "node/472398313",
        "name": "Ibis Budget Porte de Bagnolet",
        "tourism": "hotel",
        "wheelchair": "yes"
      },
      "geometry": {
        "type": "Point",
        "coordinates": [
          2.4164224,
          48.8665538
        ]
      },
      "id": "node/472398313"
    },
    {
      "type": "Feature",
      "properties": {
        "@id": "node/472398315",
        "name": "Ibis Porte de Bagnolet",
        "tourism": "hotel",
        "wheelchair": "yes"
      },
      "geometry": {
        "type": "Point",
        "coordinates": [
          2.4168062,
          48.8665731
        ]
      },
      "id": "node/472398315"
    },
    {
      "type": "Feature",
      "properties": {
        "@id": "node/473827195",
        "name": "Hôtel Kyriad",
        "stars": "3",
        "tourism": "hotel",
        "wheelchair": "yes"
      },
      "geometry": {
        "type": "Point",
        "coordinates": [
          2.3876342,
          48.8351933
        ]
      },
      "id": "node/473827195"
    },
    {
      "type": "Feature",
      "properties": {
        "@id": "node/473827217",
        "name": "Novotel Paris Bercy",
        "tourism": "hotel",
        "wheelchair": "yes"
      },
      "geometry": {
        "type": "Point",
        "coordinates": [
          2.3804572,
          48.8388012
        ]
      },
      "id": "node/473827217"
    },
    {
      "type": "Feature",
      "properties": {
        "@id": "node/473827219",
        "addr:city": "Paris",
        "addr:housenumber": "77",
        "addr:postcode": "75012",
        "addr:street": "Rue de Bercy",
        "name": "Hôtel Ibis Styles Paris-Bercy",
        "operator": "Accord",
        "tourism": "hotel",
        "wheelchair": "yes"
      },
      "geometry": {
        "type": "Point",
        "coordinates": [
          2.3811331,
          48.8384022
        ]
      },
      "id": "node/473827219"
    },
    {
      "type": "Feature",
      "properties": {
        "@id": "node/474642445",
        "name": "Brebant",
        "tourism": "hotel"
      },
      "geometry": {
        "type": "Point",
        "coordinates": [
          2.3441475,
          48.8715269
        ]
      },
      "id": "node/474642445"
    },
    {
      "type": "Feature",
      "properties": {
        "@id": "node/482600914",
        "name": "Mister Bed City",
        "source": "cadastre-dgi-fr source : Direction Générale des Impôts - Cadastre. Mise à jour : 2009",
        "tourism": "hotel"
      },
      "geometry": {
        "type": "Point",
        "coordinates": [
          2.6557342,
          48.8416848
        ]
      },
      "id": "node/482600914"
    },
    {
      "type": "Feature",
      "properties": {
        "@id": "node/482600922",
        "name": "Mister Bed Résidence",
        "source": "cadastre-dgi-fr source : Direction Générale des Impôts - Cadastre. Mise à jour : 2009",
        "tourism": "hotel"
      },
      "geometry": {
        "type": "Point",
        "coordinates": [
          2.6554005,
          48.8415074
        ]
      },
      "id": "node/482600922"
    },
    {
      "type": "Feature",
      "properties": {
        "@id": "node/490767852",
        "name": "Hôtel Plaza Élysées",
        "stars": "3",
        "tourism": "hotel"
      },
      "geometry": {
        "type": "Point",
        "coordinates": [
          2.3057595,
          48.874647
        ]
      },
      "id": "node/490767852"
    },
    {
      "type": "Feature",
      "properties": {
        "@id": "node/492871739",
        "name": "Hôtel Altona",
        "tourism": "hotel"
      },
      "geometry": {
        "type": "Point",
        "coordinates": [
          2.3498469,
          48.8824615
        ]
      },
      "id": "node/492871739"
    },
    {
      "type": "Feature",
      "properties": {
        "@id": "node/492894524",
        "addr:housenumber": "65",
        "addr:street": "Rue Orléanaise",
        "amenity": "restaurant",
        "name": "La Madeleine",
        "tourism": "hotel",
        "url": "http://www.hotel-lamadeleine.fr/"
      },
      "geometry": {
        "type": "Point",
        "coordinates": [
          2.3062263,
          47.810262
        ]
      },
      "id": "node/492894524"
    },
    {
      "type": "Feature",
      "properties": {
        "@id": "node/493551056",
        "tourism": "hotel"
      },
      "geometry": {
        "type": "Point",
        "coordinates": [
          2.4161774,
          48.8118969
        ]
      },
      "id": "node/493551056"
    },
    {
      "type": "Feature",
      "properties": {
        "@id": "node/493554424",
        "name": "adagio express",
        "tourism": "hotel"
      },
      "geometry": {
        "type": "Point",
        "coordinates": [
          2.4187394,
          48.8149385
        ]
      },
      "id": "node/493554424"
    },
    {
      "type": "Feature",
      "properties": {
        "@id": "node/494663377",
        "name": "Hôtel Losserand Montparnasse",
        "tourism": "hotel"
      },
      "geometry": {
        "type": "Point",
        "coordinates": [
          2.3176364,
          48.8337124
        ]
      },
      "id": "node/494663377"
    },
    {
      "type": "Feature",
      "properties": {
        "@id": "node/495494197",
        "name": "Hôtel Suite-home",
        "tourism": "hotel"
      },
      "geometry": {
        "type": "Point",
        "coordinates": [
          2.3984506,
          48.8932614
        ]
      },
      "id": "node/495494197"
    },
    {
      "type": "Feature",
      "properties": {
        "@id": "node/495494199",
        "name": "Hôtel Saint-Louis",
        "stars": "3",
        "tourism": "hotel"
      },
      "geometry": {
        "type": "Point",
        "coordinates": [
          2.4353392,
          48.8452358
        ]
      },
      "id": "node/495494199"
    },
    {
      "type": "Feature",
      "properties": {
        "@id": "node/495494200",
        "name": "Hôtel du Château",
        "tourism": "hotel"
      },
      "geometry": {
        "type": "Point",
        "coordinates": [
          2.4353943,
          48.845015
        ]
      },
      "id": "node/495494200"
    },
    {
      "type": "Feature",
      "properties": {
        "@id": "node/495985883",
        "addr:housenumber": "18",
        "addr:street": "Avenue du Général de Gaulle",
        "amenity": "restaurant",
        "name": "Au Petit Caporal",
        "source": "survey",
        "tourism": "hotel",
        "website": "hotelpetitcaporal.com"
      },
      "geometry": {
        "type": "Point",
        "coordinates": [
          2.4202526,
          48.8150987
        ]
      },
      "id": "node/495985883"
    },
    {
      "type": "Feature",
      "properties": {
        "@id": "node/500255579",
        "name": "Wattignies Hôtel",
        "tourism": "hotel"
      },
      "geometry": {
        "type": "Point",
        "coordinates": [
          2.39232,
          48.8367389
        ]
      },
      "id": "node/500255579"
    },
    {
      "type": "Feature",
      "properties": {
        "@id": "node/501841083",
        "name": "Domaine du Verbois",
        "tourism": "hotel"
      },
      "geometry": {
        "type": "Point",
        "coordinates": [
          1.905485,
          48.8114525
        ]
      },
      "id": "node/501841083"
    },
    {
      "type": "Feature",
      "properties": {
        "@id": "node/503336590",
        "amenity": "restaurant",
        "building": "hotel",
        "cuisine": "french",
        "delivery": "no",
        "internet_access": "wlan",
        "internet_access:fee": "no",
        "name": "Auberge de la Plaine",
        "rooms": "14",
        "smoking": "no",
        "stars": "2",
        "takeaway": "no",
        "tourism": "hotel",
        "website": "http://auberge-plaine.com",
        "wheelchair": "no"
      },
      "geometry": {
        "type": "Point",
        "coordinates": [
          4.5581169,
          48.343359
        ]
      },
      "id": "node/503336590"
    },
    {
      "type": "Feature",
      "properties": {
        "@id": "node/508601813",
        "name": "Hôtel Bercy Gare de Lyon",
        "tourism": "hotel"
      },
      "geometry": {
        "type": "Point",
        "coordinates": [
          2.3892373,
          48.8393596
        ]
      },
      "id": "node/508601813"
    },
    {
      "type": "Feature",
      "properties": {
        "@id": "node/519073606",
        "addr:city": "Paris",
        "addr:housenumber": "33",
        "addr:postcode": "75012",
        "addr:street": "Avenue du Docteur Arnold Netter",
        "alt_name": "Best Western Allegro Nation",
        "alt_name_1": "Hôtel  Best Western Allegro Nation",
        "name": "Hôtel Allegro",
        "operator": "Best Western",
        "phone": "+33 1 40 04 90 90",
        "tourism": "hotel",
        "wheelchair": "limited"
      },
      "geometry": {
        "type": "Point",
        "coordinates": [
          2.4051424,
          48.8430418
        ]
      },
      "id": "node/519073606"
    },
    {
      "type": "Feature",
      "properties": {
        "@id": "node/529914035",
        "addr:city": "Paris",
        "addr:country": "FR",
        "addr:housenumber": "2",
        "addr:postcode": "92081",
        "addr:street": "Boulevard de Neuilly",
        "name": "Novotel Paris La Défense",
        "operator": "Accor Hotels",
        "phone": "+33141452323",
        "stars": "3",
        "tourism": "hotel",
        "url": "http://www.accorhotels.com/de/hotel-0747-novotel-paris-la-defense/index.shtml"
      },
      "geometry": {
        "type": "Point",
        "coordinates": [
          2.2528582,
          48.8879723
        ]
      },
      "id": "node/529914035"
    },
    {
      "type": "Feature",
      "properties": {
        "@id": "node/530272873",
        "internet_access": "wlan",
        "name": "Terminus - Lyon",
        "stars": "3",
        "tourism": "hotel"
      },
      "geometry": {
        "type": "Point",
        "coordinates": [
          2.3717725,
          48.8458297
        ]
      },
      "id": "node/530272873"
    },
    {
      "type": "Feature",
      "properties": {
        "@id": "node/530272876",
        "name": "Hôtel Albe Bastille",
        "source": "survey",
        "tourism": "hotel"
      },
      "geometry": {
        "type": "Point",
        "coordinates": [
          2.3744491,
          48.8493585
        ]
      },
      "id": "node/530272876"
    },
    {
      "type": "Feature",
      "properties": {
        "@id": "node/530272916",
        "name": "Viator",
        "tourism": "hotel"
      },
      "geometry": {
        "type": "Point",
        "coordinates": [
          2.3725504,
          48.8468441
        ]
      },
      "id": "node/530272916"
    },
    {
      "type": "Feature",
      "properties": {
        "@id": "node/530272917",
        "name": "Hôtel du Midi",
        "tourism": "hotel"
      },
      "geometry": {
        "type": "Point",
        "coordinates": [
          2.372644,
          48.8472258
        ]
      },
      "id": "node/530272917"
    },
    {
      "type": "Feature",
      "properties": {
        "@id": "node/530272919",
        "name": "Holiday Inn",
        "stars": "4",
        "tourism": "hotel"
      },
      "geometry": {
        "type": "Point",
        "coordinates": [
          2.3717077,
          48.8467471
        ]
      },
      "id": "node/530272919"
    },
    {
      "type": "Feature",
      "properties": {
        "@id": "node/530751113",
        "name": "Hôtel Saint-Hubert",
        "tourism": "hotel"
      },
      "geometry": {
        "type": "Point",
        "coordinates": [
          2.3723416,
          48.8470172
        ]
      },
      "id": "node/530751113"
    },
    {
      "type": "Feature",
      "properties": {
        "@id": "node/530751143",
        "name": "Azur",
        "tourism": "hotel"
      },
      "geometry": {
        "type": "Point",
        "coordinates": [
          2.3719493,
          48.8462447
        ]
      },
      "id": "node/530751143"
    },
    {
      "type": "Feature",
      "properties": {
        "@id": "node/530751145",
        "name": "Lyon Bastille",
        "tourism": "hotel"
      },
      "geometry": {
        "type": "Point",
        "coordinates": [
          2.372834,
          48.8468976
        ]
      },
      "id": "node/530751145"
    },
    {
      "type": "Feature",
      "properties": {
        "@id": "node/530876703",
        "name": "Mercure",
        "tourism": "hotel",
        "wheelchair": "yes"
      },
      "geometry": {
        "type": "Point",
        "coordinates": [
          2.3728366,
          48.8444405
        ]
      },
      "id": "node/530876703"
    },
    {
      "type": "Feature",
      "properties": {
        "@id": "node/534906172",
        "name": "Concordia",
        "stars": "2",
        "tourism": "hotel"
      },
      "geometry": {
        "type": "Point",
        "coordinates": [
          2.3771827,
          48.8460864
        ]
      },
      "id": "node/534906172"
    },
    {
      "type": "Feature",
      "properties": {
        "@id": "node/534908405",
        "name": "Hôtel Helvetia",
        "tourism": "hotel"
      },
      "geometry": {
        "type": "Point",
        "coordinates": [
          2.3754798,
          48.8457514
        ]
      },
      "id": "node/534908405"
    },
    {
      "type": "Feature",
      "properties": {
        "@id": "node/535858170",
        "name": "Hôtel de Marseille",
        "tourism": "hotel"
      },
      "geometry": {
        "type": "Point",
        "coordinates": [
          2.3712106,
          48.8474633
        ]
      },
      "id": "node/535858170"
    },
    {
      "type": "Feature",
      "properties": {
        "@id": "node/535860983",
        "name": "Hôtel Alexandrie",
        "rooms": "37",
        "stars": "3",
        "tourism": "hotel"
      },
      "geometry": {
        "type": "Point",
        "coordinates": [
          2.3710629,
          48.8473704
        ]
      },
      "id": "node/535860983"
    },
    {
      "type": "Feature",
      "properties": {
        "@id": "node/535861513",
        "name": "Nièvre Hôtel",
        "tourism": "hotel"
      },
      "geometry": {
        "type": "Point",
        "coordinates": [
          2.3712576,
          48.8472924
        ]
      },
      "id": "node/535861513"
    },
    {
      "type": "Feature",
      "properties": {
        "@id": "node/535864949",
        "name": "Modern's",
        "tourism": "hotel"
      },
      "geometry": {
        "type": "Point",
        "coordinates": [
          2.3706217,
          48.847093
        ]
      },
      "id": "node/535864949"
    },
    {
      "type": "Feature",
      "properties": {
        "@id": "node/535866251",
        "name": "Bel Oranger",
        "tourism": "hotel",
        "website": "http://www.hotelbelorangerparis.com/"
      },
      "geometry": {
        "type": "Point",
        "coordinates": [
          2.370429,
          48.8469719
        ]
      },
      "id": "node/535866251"
    },
    {
      "type": "Feature",
      "properties": {
        "@id": "node/535867137",
        "name": "Hôtel de l'Aveyron",
        "tourism": "hotel"
      },
      "geometry": {
        "type": "Point",
        "coordinates": [
          2.3702623,
          48.8468671
        ]
      },
      "id": "node/535867137"
    },
    {
      "type": "Feature",
      "properties": {
        "@id": "node/535869178",
        "name": "Gare de Lyon",
        "tourism": "hotel"
      },
      "geometry": {
        "type": "Point",
        "coordinates": [
          2.370162,
          48.8468041
        ]
      },
      "id": "node/535869178"
    },
    {
      "type": "Feature",
      "properties": {
        "@id": "node/535946091",
        "name": "Aurore Best Western",
        "tourism": "hotel"
      },
      "geometry": {
        "type": "Point",
        "coordinates": [
          2.3705756,
          48.845784
        ]
      },
      "id": "node/535946091"
    },
    {
      "type": "Feature",
      "properties": {
        "@id": "node/539421063",
        "name": "Chez Ali",
        "tourism": "hotel"
      },
      "geometry": {
        "type": "Point",
        "coordinates": [
          2.0965836,
          49.0492934
        ]
      },
      "id": "node/539421063"
    },
    {
      "type": "Feature",
      "properties": {
        "@id": "node/541208586",
        "name": "Hôtel Europe",
        "tourism": "hotel"
      },
      "geometry": {
        "type": "Point",
        "coordinates": [
          2.3549476,
          48.8778477
        ]
      },
      "id": "node/541208586"
    },
    {
      "type": "Feature",
      "properties": {
        "@id": "node/541646563",
        "name": "Courtyard by Marriott",
        "tourism": "hotel"
      },
      "geometry": {
        "type": "Point",
        "coordinates": [
          2.343079,
          48.9222144
        ]
      },
      "id": "node/541646563"
    },
    {
      "type": "Feature",
      "properties": {
        "@id": "node/553496562",
        "name": "Residhome Appart'Hotel",
        "tourism": "hotel"
      },
      "geometry": {
        "type": "Point",
        "coordinates": [
          2.2651593,
          48.7263302
        ]
      },
      "id": "node/553496562"
    },
    {
      "type": "Feature",
      "properties": {
        "@id": "node/556687831",
        "name": "Hôtel Mignon",
        "tourism": "hotel"
      },
      "geometry": {
        "type": "Point",
        "coordinates": [
          2.3710844,
          48.8470895
        ]
      },
      "id": "node/556687831"
    },
    {
      "type": "Feature",
      "properties": {
        "@id": "node/562968973",
        "tourism": "hotel"
      },
      "geometry": {
        "type": "Point",
        "coordinates": [
          2.0967866,
          49.0193017
        ]
      },
      "id": "node/562968973"
    },
    {
      "type": "Feature",
      "properties": {
        "@id": "node/563298391",
        "name": "Alcyon",
        "tourism": "hotel"
      },
      "geometry": {
        "type": "Point",
        "coordinates": [
          2.3756832,
          48.8499435
        ]
      },
      "id": "node/563298391"
    },
    {
      "type": "Feature",
      "properties": {
        "@id": "node/564642753",
        "name": "Château Saint-Just - Belle Église",
        "tourism": "hotel"
      },
      "geometry": {
        "type": "Point",
        "coordinates": [
          2.2228492,
          49.1880147
        ]
      },
      "id": "node/564642753"
    },
    {
      "type": "Feature",
      "properties": {
        "@id": "node/582747696",
        "name": "Hôtel Prince",
        "tourism": "hotel"
      },
      "geometry": {
        "type": "Point",
        "coordinates": [
          2.3050685,
          48.8548916
        ]
      },
      "id": "node/582747696"
    },
    {
      "type": "Feature",
      "properties": {
        "@id": "node/582931088",
        "name": "Le central",
        "stars": "1",
        "tourism": "hotel"
      },
      "geometry": {
        "type": "Point",
        "coordinates": [
          2.3484561,
          48.8471437
        ]
      },
      "id": "node/582931088"
    },
    {
      "type": "Feature",
      "properties": {
        "@id": "node/583318136",
        "addr:housenumber": "1 à 11",
        "addr:street": "Rue René Villars",
        "name": "Kyriad Paris Sud Porte d'Ivry",
        "tourism": "hotel"
      },
      "geometry": {
        "type": "Point",
        "coordinates": [
          2.3762012,
          48.8196937
        ]
      },
      "id": "node/583318136"
    },
    {
      "type": "Feature",
      "properties": {
        "@id": "node/591672596",
        "name": "Hôtel Pont Royal",
        "name:zh": "皇家庞特酒店",
        "toilets:wheelchair": "no",
        "tourism": "hotel",
        "wheelchair": "no",
        "wikidata": "Q3145633"
      },
      "geometry": {
        "type": "Point",
        "coordinates": [
          2.3273421,
          48.8565619
        ]
      },
      "id": "node/591672596"
    },
    {
      "type": "Feature",
      "properties": {
        "@id": "node/596074206",
        "addr:city": "Paris",
        "addr:housenumber": "10",
        "addr:postcode": "75017",
        "addr:street": "Rue Bernard Buffet",
        "internet_access": "wlan",
        "internet_access:fee": "no",
        "internet_access:ssid": "AccorHotels-Guest",
        "name": "Hôtel Ibis Paris 17 Clichy-Batignolles",
        "old_name": "Berthier",
        "toilets:wheelchair": "yes",
        "tourism": "hotel",
        "wheelchair": "yes"
      },
      "geometry": {
        "type": "Point",
        "coordinates": [
          2.315184,
          48.8919813
        ]
      },
      "id": "node/596074206"
    },
    {
      "type": "Feature",
      "properties": {
        "@id": "node/597414066",
        "name": "Hôtel Marriott",
        "tourism": "hotel",
        "wheelchair": "yes"
      },
      "geometry": {
        "type": "Point",
        "coordinates": [
          2.3050358,
          48.8710747
        ]
      },
      "id": "node/597414066"
    },
    {
      "type": "Feature",
      "properties": {
        "@id": "node/600543320",
        "addr:housenumber": "72 bis",
        "name": "Aux Sports",
        "source": "cadastre-dgi-fr source : Direction Générale des Impôts - Cadastre. Mise à jour : 2009",
        "tourism": "hotel"
      },
      "geometry": {
        "type": "Point",
        "coordinates": [
          2.2644052,
          48.9858864
        ]
      },
      "id": "node/600543320"
    },
    {
      "type": "Feature",
      "properties": {
        "@id": "node/603020022",
        "name": "Chanteloup Hotel",
        "tourism": "hotel"
      },
      "geometry": {
        "type": "Point",
        "coordinates": [
          2.7429961,
          48.8555139
        ]
      },
      "id": "node/603020022"
    },
    {
      "type": "Feature",
      "properties": {
        "@id": "node/603023370",
        "addr:city": "Serris",
        "addr:housenumber": "7",
        "addr:postcode": "77700",
        "addr:street": "Cours du Danube",
        "name": "Hôtel l'Elysée",
        "operator": "HOTEL L'ELYSEE VAL D'EUROPE",
        "phone": "+33 1 64 63 33 33",
        "rooms": "152",
        "source": "Informations provenant du site officiel de l'hôtel",
        "stars": "3",
        "tourism": "hotel",
        "website": "http://www.hotelelysee.com/",
        "wheelchair": "yes"
      },
      "geometry": {
        "type": "Point",
        "coordinates": [
          2.7755725,
          48.8555165
        ]
      },
      "id": "node/603023370"
    },
    {
      "type": "Feature",
      "properties": {
        "@id": "node/605024645",
        "addr:housenumber": "4",
        "addr:street": "Rue Béranger",
        "elevator": "no",
        "email": "nanterre@hotelmoderne92.fr",
        "fax": "+33147245940",
        "internet_access": "wlan",
        "internet_access:fee": "yes",
        "name": "Le Modern'",
        "phone": "+33147211452",
        "smoking": "no",
        "television": "yes",
        "tourism": "hotel",
        "website": "http://www.hotelmoderne92.fr/"
      },
      "geometry": {
        "type": "Point",
        "coordinates": [
          2.1958858,
          48.8958094
        ]
      },
      "id": "node/605024645"
    },
    {
      "type": "Feature",
      "properties": {
        "@id": "node/617271663",
        "addr:housenumber": "142",
        "addr:street": "Boulevard de l'Hôpital",
        "internet_access": "wlan",
        "name": "Hôtel Coypel",
        "stars": "2",
        "tourism": "hotel"
      },
      "geometry": {
        "type": "Point",
        "coordinates": [
          2.3565158,
          48.833304
        ]
      },
      "id": "node/617271663"
    },
    {
      "type": "Feature",
      "properties": {
        "@id": "node/617271681",
        "name": "Hôtel des Arts",
        "stars": "2",
        "tourism": "hotel"
      },
      "geometry": {
        "type": "Point",
        "coordinates": [
          2.3560025,
          48.8332931
        ]
      },
      "id": "node/617271681"
    },
    {
      "type": "Feature",
      "properties": {
        "@id": "node/622303211",
        "name": "Hôtel Dacia",
        "stars": "3",
        "tourism": "hotel"
      },
      "geometry": {
        "type": "Point",
        "coordinates": [
          2.3422373,
          48.8492256
        ]
      },
      "id": "node/622303211"
    },
    {
      "type": "Feature",
      "properties": {
        "@id": "node/629382811",
        "name": "Convention Montparnasse",
        "source": "survey",
        "tourism": "hotel"
      },
      "geometry": {
        "type": "Point",
        "coordinates": [
          2.2971923,
          48.8371967
        ]
      },
      "id": "node/629382811"
    },
    {
      "type": "Feature",
      "properties": {
        "@id": "node/632216045",
        "name": "Hôtel la Rotonde",
        "tourism": "hotel"
      },
      "geometry": {
        "type": "Point",
        "coordinates": [
          2.374404,
          48.704205
        ]
      },
      "id": "node/632216045"
    },
    {
      "type": "Feature",
      "properties": {
        "@id": "node/633017877",
        "name": "L'Imprévu",
        "tourism": "hotel"
      },
      "geometry": {
        "type": "Point",
        "coordinates": [
          2.1885063,
          48.8962654
        ]
      },
      "id": "node/633017877"
    },
    {
      "type": "Feature",
      "properties": {
        "@id": "node/633453944",
        "name": "Novotel",
        "tourism": "hotel"
      },
      "geometry": {
        "type": "Point",
        "coordinates": [
          2.229871,
          48.8703054
        ]
      },
      "id": "node/633453944"
    },
    {
      "type": "Feature",
      "properties": {
        "@id": "node/640691402",
        "amenity": "bar",
        "fax": "+33147215391",
        "name": "L'Acacia",
        "note:fr": "Bar Hotel Restaurant",
        "phone": "+33147254655",
        "source": "survey 2013;knowledge",
        "tourism": "hotel",
        "website": "http://www.lacacia.fr/",
        "website:menu": "http://www.lacacia.fr/openmenu/la-carte/"
      },
      "geometry": {
        "type": "Point",
        "coordinates": [
          2.2087546,
          48.8866553
        ]
      },
      "id": "node/640691402"
    },
    {
      "type": "Feature",
      "properties": {
        "@id": "node/650007651",
        "name": "Albe Hôtel Saint-Michel",
        "tourism": "hotel"
      },
      "geometry": {
        "type": "Point",
        "coordinates": [
          2.3447283,
          48.8531115
        ]
      },
      "id": "node/650007651"
    },
    {
      "type": "Feature",
      "properties": {
        "@id": "node/655431553",
        "name": "GIS Hotel",
        "tourism": "hotel"
      },
      "geometry": {
        "type": "Point",
        "coordinates": [
          2.513036,
          48.851821
        ]
      },
      "id": "node/655431553"
    },
    {
      "type": "Feature",
      "properties": {
        "@id": "node/661136639",
        "name": "Formule 1",
        "tourism": "hotel"
      },
      "geometry": {
        "type": "Point",
        "coordinates": [
          2.3164995,
          48.822856
        ]
      },
      "id": "node/661136639"
    },
    {
      "type": "Feature",
      "properties": {
        "@id": "node/664193167",
        "tourism": "hotel"
      },
      "geometry": {
        "type": "Point",
        "coordinates": [
          2.2021873,
          49.0021042
        ]
      },
      "id": "node/664193167"
    },
    {
      "type": "Feature",
      "properties": {
        "@id": "node/664199472",
        "internet_access": "wlan",
        "name": "Mercure Versailles Château",
        "operator": "Mercure",
        "stars": "3",
        "tourism": "hotel",
        "wheelchair": "no"
      },
      "geometry": {
        "type": "Point",
        "coordinates": [
          2.1347412,
          48.8032936
        ]
      },
      "id": "node/664199472"
    },